licence,route,stop_id,stop_name,stop_index,registration_time,arrival_time,eta_min_T0,eta_ts_T0,error_T0,eta_min_T15,eta_ts_T15,error_T15,eta_min_T30,eta_ts_T30,error_T30,eta_min_T45,eta_ts_T45,error_T45,eta_min_T60,eta_ts_T60,error_T60,eta_min_T75,eta_ts_T75,error_T75,eta_min_T90,eta_ts_T90,error_T90,eta_min_T105,eta_ts_T105,error_T105,eta_min_T120,eta_ts_T120,error_T120
10-1147,Rawai -> Airport,17,Sai Yuan,642,2025-12-02T14:52:47.395609,2025-12-02T14:54:19.327803,1.0,2025-12-02T14:53:47.395609,0.53,,,,,,,,,,,,,,,,,,,,,,,,
10-1147,Rawai -> Airport,18,Andaman Cannacia Resort,1565,2025-12-02T14:52:47.395609,2025-12-02T15:01:27.440333,9.0,2025-12-02T15:01:47.395609,-0.33,,,,,,,,,,,,,,,,,,,,,,,,
10-1147,Rawai -> Airport,19,Beyond hotel Kata,1728,2025-12-02T14:52:47.395609,2025-12-02T15:06:33.557078,11.0,2025-12-02T15:03:47.395609,2.77,,,,,,,,,,,,,,,,,,,,,,,,
10-1147,Rawai -> Airport,20,Kata Palm,1780,2025-12-02T14:52:47.395609,2025-12-02T15:06:33.557078,12.0,2025-12-02T15:04:47.395609,1.77,,,,,,,,,,,,,,,,,,,,,,,,
10-1147,Rawai -> Airport,21,OZO Kata,1937,2025-12-02T14:52:47.395609,2025-12-02T15:09:38.021280,14.0,2025-12-02T15:06:47.395609,2.84,,,,,,,,,,,,,,,,,,,,,,,,
10-1147,Rawai -> Airport,22,Peach Blossom,1963,2025-12-02T14:52:47.395609,2025-12-02T15:10:08.704053,15.0,2025-12-02T15:07:47.395609,2.36,1.0,2025-12-02T15:09:05.120597,1.06,,,,,,,,,,,,,,,,,,,,,
10-1147,Rawai -> Airport,23,Karon Stadium,2064,2025-12-02T14:52:47.395609,2025-12-02T15:13:42.467218,16.0,2025-12-02T15:08:47.395609,4.92,2.0,2025-12-02T15:10:05.120597,3.62,,,,,,,,,,,,,,,,,,,,,
10-1147,Rawai -> Airport,24,Woraburi Karon,2369,2025-12-02T14:52:47.395609,2025-12-02T15:18:17.237373,20.0,2025-12-02T15:12:47.395609,5.5,6.0,2025-12-02T15:14:05.120597,4.2,,,,,,,,,,,,,,,,,,,,,
10-1147,Rawai -> Airport,25,Karon Circle,2454,2025-12-02T14:52:47.395609,2025-12-02T15:19:18.274863,21.0,2025-12-02T15:13:47.395609,5.51,7.0,2025-12-02T15:15:05.120597,4.22,,,,,,,,,,,,,,,,,,,,,
10-1147,Rawai -> Airport,26,"Secret cliff resort ",2997,2025-12-02T14:52:47.395609,2025-12-02T15:32:31.781112,26.0,2025-12-02T15:18:47.395609,13.74,12.0,2025-12-02T15:20:05.120597,12.44,5.0,2025-12-02T15:27:52.370289,4.66,,,,,,,,,,,,,,,,,,
10-1147,Rawai -> Airport,27,Patong Bus Stop,3674,2025-12-02T14:52:47.395609,2025-12-02T15:43:12.170022,32.0,2025-12-02T15:24:47.395609,18.41,18.0,2025-12-02T15:26:05.120597,17.12,12.0,2025-12-02T15:34:52.370289,8.33,1.0,2025-12-02T15:39:07.371402,4.08,,,,,,,,,,,,,,,
10-1147,Rawai -> Airport,28,"Bangla Patong ",3858,2025-12-02T14:52:47.395609,2025-12-02T15:57:27.851003,36.0,2025-12-02T15:28:47.395609,28.67,22.0,2025-12-02T15:30:05.120597,27.38,15.0,2025-12-02T15:37:52.370289,19.59,5.0,2025-12-02T15:43:07.371402,14.34,,,,,,,,,,,,,,,
10-1147,Rawai -> Airport,29,Four Point Patong,4204,2025-12-02T14:52:47.395609,2025-12-02T16:01:32.232380,43.0,2025-12-02T15:35:47.395609,25.75,29.0,2025-12-02T15:37:05.120597,24.45,22.0,2025-12-02T15:44:52.370289,16.66,12.0,2025-12-02T15:50:07.371402,11.41,7.0,2025-12-02T15:59:52.706324,1.66,,,,,,,,,,,,
10-1147,Rawai -> Airport,30,Kalim School,4320,2025-12-02T14:52:47.395609,2025-12-02T16:02:32.832495,44.0,2025-12-02T15:36:47.395609,25.76,30.0,2025-12-02T15:38:05.120597,24.46,23.0,2025-12-02T15:45:52.370289,16.67,13.0,2025-12-02T15:51:07.371402,11.42,8.0,2025-12-02T16:00:52.706324,1.67,,,,,,,,,,,,
10-1147,Rawai -> Airport,31,Kalim Bus Stop,4437,2025-12-02T14:52:47.395609,2025-12-02T16:04:34.341305,45.0,2025-12-02T15:37:47.395609,26.78,31.0,2025-12-02T15:39:05.120597,25.49,24.0,2025-12-02T15:46:52.370289,17.7,14.0,2025-12-02T15:52:07.371402,12.45,9.0,2025-12-02T16:01:52.706324,2.69,,,,,,,,,,,,
10-1147,Rawai -> Airport,32,Big C Kamala,5519,2025-12-02T14:52:47.395609,2025-12-02T16:12:11.054383,55.0,2025-12-02T15:47:47.395609,24.39,42.0,2025-12-02T15:50:05.120597,22.1,35.0,2025-12-02T15:57:52.370289,14.31,25.0,2025-12-02T16:03:07.371402,9.06,19.0,2025-12-02T16:11:52.706324,0.31,4.0,2025-12-02T16:12:08.654446,0.04,,,,,,,,,
10-1147,Rawai -> Airport,33,Phuket Fantasea,5751,2025-12-02T14:52:47.395609,2025-12-02T16:16:13.323373,58.0,2025-12-02T15:50:47.395609,25.43,44.0,2025-12-02T15:52:05.120597,24.14,37.0,2025-12-02T15:59:52.370289,16.35,27.0,2025-12-02T16:05:07.371402,11.1,21.0,2025-12-02T16:13:52.706324,2.34,6.0,2025-12-02T16:14:08.654446,2.08,,,,,,,,,
10-1147,Rawai -> Airport,34,Kamala Muslim Cemetery,5863,2025-12-02T14:52:47.395609,2025-12-02T16:16:13.323373,59.0,2025-12-02T15:51:47.395609,24.43,45.0,2025-12-02T15:53:05.120597,23.14,38.0,2025-12-02T16:00:52.370289,15.35,28.0,2025-12-02T16:06:07.371402,10.1,22.0,2025-12-02T16:14:52.706324,1.34,7.0,2025-12-02T16:15:08.654446,1.08,,,,,,,,,
10-1147,Rawai -> Airport,35,Cafe De Mar,5945,2025-12-02T14:52:47.395609,2025-12-02T16:17:14.019545,59.0,2025-12-02T15:51:47.395609,25.44,46.0,2025-12-02T15:54:05.120597,23.15,39.0,2025-12-02T16:01:52.370289,15.36,28.0,2025-12-02T16:06:07.371402,11.11,23.0,2025-12-02T16:15:52.706324,1.36,8.0,2025-12-02T16:16:08.654446,1.09,,,,,,,,,
10-1147,Rawai -> Airport,36,Surin Beach,6442,2025-12-02T14:52:47.395609,2025-12-02T16:21:16.369787,64.0,2025-12-02T15:56:47.395609,24.48,50.0,2025-12-02T15:58:05.120597,23.19,43.0,2025-12-02T16:05:52.370289,15.4,33.0,2025-12-02T16:11:07.371402,10.15,28.0,2025-12-02T16:20:52.706324,0.39,12.0,2025-12-02T16:20:08.654446,1.13,,,,,,,,,
10-1147,Rawai -> Airport,37,Lotus Cherngtalay,7024,2025-12-02T14:52:47.395609,2025-12-02T16:29:21.469955,70.0,2025-12-02T16:02:47.395609,26.57,57.0,2025-12-02T16:05:05.120597,24.27,50.0,2025-12-02T16:12:52.370289,16.48,39.0,2025-12-02T16:17:07.371402,12.23,34.0,2025-12-02T16:26:52.706324,2.48,19.0,2025-12-02T16:27:08.654446,2.21,3.0,2025-12-02T16:26:17.624138,3.06,,,,,,
10-1264,Dragon Line,10,Krungsri Bank,647,2025-12-02T14:52:47.396026,2025-12-02T14:53:18.110062,16.0,2025-12-02T15:19:28.424179,,14.0,2025-12-02T15:47:24.659491,,14.0,2025-12-02T15:47:55.202279,,1.0,2025-12-02T15:49:36.502083,,,,,,,,,,,,,,,,
10-1264,Dragon Line,11,WANLAMUN & EGG E EGG @ OLD TOWN,692,2025-12-02T14:52:47.396026,2025-12-02T14:54:19.261338,1.0,2025-12-02T14:53:47.396026,0.53,16.0,2025-12-02T15:49:24.659491,,16.0,2025-12-02T15:49:55.202279,,2.0,2025-12-02T15:50:36.502083,,,,,,,,,,,,,,,,
10-1264,Dragon Line,12,Phuket Thaihua Museum,760,2025-12-02T14:52:47.396026,2025-12-02T14:55:19.804785,3.0,2025-12-02T14:55:47.396026,-0.46,18.0,2025-12-02T15:51:24.659491,,18.0,2025-12-02T15:51:55.202279,,3.0,2025-12-02T15:51:36.502083,,,,,,,,,,,,,,,,
10-1264,Dragon Line,13,Dibuk Road,830,2025-12-02T14:52:47.396026,2025-12-02T14:57:22.883402,4.0,2025-12-02T14:56:47.396026,0.59,20.0,2025-12-02T15:53:24.659491,,20.0,2025-12-02T15:53:55.202279,,5.0,2025-12-02T15:53:36.502083,,,,,,,,,,,,,,,,
10-1264,Dragon Line,14,Mongkhonnimit Temple,886,2025-12-02T14:52:47.396026,2025-12-02T15:00:25.707396,6.0,2025-12-02T14:58:47.396026,1.64,21.0,2025-12-02T15:54:24.659491,,21.0,2025-12-02T15:54:55.202279,,7.0,2025-12-02T15:55:36.502083,,,,,,,,,,,,,,,,
10-1264,Dragon Line,15,Limelight Phuket,960,2025-12-02T14:52:47.396026,2025-12-02T15:02:27.546491,7.0,2025-12-02T14:59:47.396026,2.67,24.0,2025-12-02T15:57:24.659491,,24.0,2025-12-02T15:57:55.202279,,9.0,2025-12-02T15:57:36.502083,,,,,,,,,,,,,,,,
10-1218,Patong -> Bus 1 -> Bus 2,86,Kathu Police Station,1550,2025-12-02T14:52:47.395944,2025-12-02T15:00:25.351189,4.0,2025-12-02T14:56:47.395944,3.63,,,,,,,,,,,,,,,,,,,,,,,,
10-1218,Patong -> Bus 1 -> Bus 2,87,Siko,1652,2025-12-02T14:52:47.395944,2025-12-02T15:01:26.275672,5.0,2025-12-02T14:57:47.395944,3.65,,,,,,,,,,,,,,,,,,,,,,,,
10-1218,Patong -> Bus 1 -> Bus 2,88,PTT Station Kathu,1843,2025-12-02T14:52:47.395944,2025-12-02T15:02:27.408859,7.0,2025-12-02T14:59:47.395944,2.67,,,,,,,,,,,,,,,,,,,,,,,,
10-1218,Patong -> Bus 1 -> Bus 2,89,Kathu Fresh Market,2031,2025-12-02T14:52:47.395944,2025-12-02T15:04:29.359356,9.0,2025-12-02T15:01:47.395944,2.7,,,,,,,,,,,,,,,,,,,,,,,,
10-1218,Patong -> Bus 1 -> Bus 2,90,Andamanda Phuket Waterpark,2377,2025-12-02T14:52:47.395944,2025-12-02T15:07:32.253170,11.0,2025-12-02T15:03:47.395944,3.75,,,,,,,,,,,,,,,,,,,,,,,,
10-1218,Patong -> Bus 1 -> Bus 2,91,Lotus Samkong,2484,2025-12-02T14:52:47.395944,2025-12-02T15:11:36.673109,12.0,2025-12-02T15:04:47.395944,6.82,,,,,,,,,,,,,,,,,,,,,,,,
10-1218,Patong -> Bus 1 -> Bus 2,92,Chillva Market,2580,2025-12-02T14:52:47.395944,2025-12-02T15:11:36.673109,13.0,2025-12-02T15:05:47.395944,5.82,1.0,2025-12-02T15:09:02.808761,2.56,,,,,,,,,,,,,,,,,,,,,
10-1218,Patong -> Bus 1 -> Bus 2,93,Bangkok Hospital Phuket,2727,2025-12-02T14:52:47.395944,2025-12-02T15:14:09.747239,16.0,2025-12-02T15:08:47.395944,5.37,3.0,2025-12-02T15:11:02.808761,3.12,,,,,,,,,,,,,,,,,,,,,
10-1218,Patong -> Bus 1 -> Bus 2,94,Vachira Phuket Hospital,2966,2025-12-02T14:52:47.395944,2025-12-02T15:15:41.254251,19.0,2025-12-02T15:11:47.395944,3.9,6.0,2025-12-02T15:14:02.808761,1.64,,,,,,,,,,,,,,,,,,,,,
10-1218,Patong -> Bus 1 -> Bus 2,95,Phuket Wittayalai School,3184,2025-12-02T14:52:47.395944,2025-12-02T15:18:14.160464,22.0,2025-12-02T15:14:47.395944,3.45,9.0,2025-12-02T15:17:02.808761,1.19,,,,,,,,,,,,,,,,,,,,,
10-1218,Patong -> Bus 1 -> Bus 2,96,Satree Phuket School,3270,2025-12-02T14:52:47.395944,2025-12-02T15:19:15.329785,23.0,2025-12-02T15:15:47.395944,3.47,10.0,2025-12-02T15:18:02.808761,1.21,,,,,,,,,,,,,,,,,,,,,
10-1218,Patong -> Bus 1 -> Bus 2,115,Sanamchai,3411,2025-12-02T14:52:47.395944,2025-12-02T15:21:17.229248,25.0,2025-12-02T15:17:47.395944,3.5,11.0,2025-12-02T15:19:02.808761,2.24,,,,,,,,,,,,,,,,,,,,,
10-1218,Patong -> Bus 1 -> Bus 2,98,Phuket Bus Terminal 1,3774,2025-12-02T14:52:47.395944,2025-12-02T15:22:18.241827,35.0,2025-12-02T15:27:47.395944,-5.49,22.0,2025-12-02T15:30:02.808761,-7.74,,,,,,,,,,,,,,,,,,,,,
10-1148,Airport -> Rawai,44,Baan Khian,2586,2025-12-02T14:52:47.395442,2025-12-02T14:57:23.233518,1.0,2025-12-02T14:53:47.395442,3.6,,,,,,,,,,,,,,,,,,,,,,,,
10-1148,Airport -> Rawai,45,Cherngtalay School,3541,2025-12-02T14:52:47.395442,2025-12-02T15:07:35.020178,10.0,2025-12-02T15:02:47.395442,4.79,,,,,,,,,,,,,,,,,,,,,,,,
10-1148,Airport -> Rawai,46,Laguna,3576,2025-12-02T14:52:47.395442,2025-12-02T15:10:09.561293,10.0,2025-12-02T15:02:47.395442,7.37,,,,,,,,,,,,,,,,,,,,,,,,
10-1148,Airport -> Rawai,47,Lotus Cherngtalay,3837,2025-12-02T14:52:47.395442,2025-12-02T15:15:15.763083,14.0,2025-12-02T15:06:47.395442,8.47,4.0,2025-12-02T15:12:05.612050,3.17,,,,,,,,,,,,,,,,,,,,,
10-1148,Airport -> Rawai,48,Surin Beach,4456,2025-12-02T14:52:47.395442,2025-12-02T15:22:23.472144,20.0,2025-12-02T15:12:47.395442,9.6,9.0,2025-12-02T15:17:05.612050,5.3,,,,,,,,,,,,,,,,,,,,,
10-1148,Airport -> Rawai,49,Intercontinental Kamala,4912,2025-12-02T14:52:47.395442,2025-12-02T15:26:28.117355,24.0,2025-12-02T15:16:47.395442,9.68,13.0,2025-12-02T15:21:05.612050,5.38,2.0,2025-12-02T15:24:53.974395,1.57,,,,,,,,,,,,,,,,,,
10-1148,Airport -> Rawai,50,Kamala Muslim Cemetery,5026,2025-12-02T14:52:47.395442,2025-12-02T15:27:29.024816,25.0,2025-12-02T15:17:47.395442,9.69,14.0,2025-12-02T15:22:05.612050,5.39,3.0,2025-12-02T15:25:53.974395,1.58,,,,,,,,,,,,,,,,,,
10-1148,Airport -> Rawai,51,Phuket Fantasea,5136,2025-12-02T14:52:47.395442,2025-12-02T15:28:29.783453,26.0,2025-12-02T15:18:47.395442,9.71,15.0,2025-12-02T15:23:05.612050,5.4,5.0,2025-12-02T15:27:53.974395,0.6,,,,,,,,,,,,,,,,,,
10-1148,Airport -> Rawai,52,Big C Kamala,5396,2025-12-02T14:52:47.395442,2025-12-02T15:32:33.122860,29.0,2025-12-02T15:21:47.395442,10.76,18.0,2025-12-02T15:26:05.612050,6.46,7.0,2025-12-02T15:29:53.974395,2.65,,,,,,,,,,,,,,,,,,
10-1148,Airport -> Rawai,53,Kalim Bus Stop,6450,2025-12-02T14:52:47.395442,2025-12-02T15:43:14.980093,39.0,2025-12-02T15:31:47.395442,11.46,28.0,2025-12-02T15:36:05.612050,7.16,18.0,2025-12-02T15:40:53.974395,2.35,4.0,2025-12-02T15:42:09.501770,1.09,,,,,,,,,,,,,,,
10-1148,Airport -> Rawai,54,Kalim School,6540,2025-12-02T14:52:47.395442,2025-12-02T15:48:20.035400,40.0,2025-12-02T15:32:47.395442,15.54,30.0,2025-12-02T15:38:05.612050,10.24,19.0,2025-12-02T15:41:53.974395,6.43,5.0,2025-12-02T15:43:09.501770,5.18,,,,,,,,,,,,,,,
10-1148,Airport -> Rawai,55,Diamond Cliff Resort & Spa,6630,2025-12-02T14:52:47.395442,2025-12-02T15:52:25.174095,41.0,2025-12-02T15:33:47.395442,18.63,31.0,2025-12-02T15:39:05.612050,13.33,20.0,2025-12-02T15:42:53.974395,9.52,7.0,2025-12-02T15:45:09.501770,7.26,,,,,,,,,,,,,,,
10-1148,Airport -> Rawai,59,"Secret cliff resort ",7899,2025-12-02T14:52:47.395442,2025-12-02T16:25:22.808577,60.0,2025-12-02T15:52:47.395442,32.59,50.0,2025-12-02T15:58:05.612050,27.29,39.0,2025-12-02T16:01:53.974395,23.48,26.0,2025-12-02T16:04:09.501770,21.22,19.0,2025-12-02T16:11:55.744492,13.45,,,,,,,,,,,,
10-1148,Airport -> Rawai,60,Karon Circle,8431,2025-12-02T14:52:47.395442,2025-12-02T16:31:26.413766,65.0,2025-12-02T15:57:47.395442,33.65,55.0,2025-12-02T16:03:05.612050,28.35,44.0,2025-12-02T16:06:53.974395,24.54,30.0,2025-12-02T16:08:09.501770,23.28,23.0,2025-12-02T16:15:55.744492,15.51,,,,,,,,,,,,
10-1148,Airport -> Rawai,61,Woraburi Karon,8523,2025-12-02T14:52:47.395442,2025-12-02T16:31:26.413766,66.0,2025-12-02T15:58:47.395442,32.65,56.0,2025-12-02T16:04:05.612050,27.35,45.0,2025-12-02T16:07:53.974395,23.54,31.0,2025-12-02T16:09:09.501770,22.28,24.0,2025-12-02T16:16:55.744492,14.51,,,,,,,,,,,,
10-1148,Airport -> Rawai,62,Karon Stadium,8823,2025-12-02T14:52:47.395442,2025-12-02T16:35:29.073953,69.0,2025-12-02T16:01:47.395442,33.69,59.0,2025-12-02T16:07:05.612050,28.39,48.0,2025-12-02T16:10:53.974395,24.58,35.0,2025-12-02T16:13:09.501770,22.33,28.0,2025-12-02T16:20:55.744492,14.56,,,,,,,,,,,,
10-1221,Bus 2 -> Bus 1 -> Patong,69,Sanamchai,1886,2025-12-02T14:52:47.395695,2025-12-02T15:07:31.864980,6.0,2025-12-02T14:58:47.395695,8.74,,,,,,,,,,,,,,,,,,,,,,,,
10-1221,Bus 2 -> Bus 1 -> Patong,70,Satree Phuket School,2019,2025-12-02T14:52:47.395695,2025-12-02T15:09:34.142629,8.0,2025-12-02T15:00:47.395695,8.78,1.0,2025-12-02T15:09:02.315678,0.53,,,,,,,,,,,,,,,,,,,,,
10-1221,Bus 2 -> Bus 1 -> Patong,71,Phuket Wittayalai School,2111,2025-12-02T14:52:47.395695,2025-12-02T15:10:35.151036,10.0,2025-12-02T15:02:47.395695,7.8,2.0,2025-12-02T15:10:02.315678,0.55,,,,,,,,,,,,,,,,,,,,,
10-1221,Bus 2 -> Bus 1 -> Patong,72,Vachira Phuket Hospital,2334,2025-12-02T14:52:47.395695,2025-12-02T15:14:09.056565,13.0,2025-12-02T15:05:47.395695,8.36,5.0,2025-12-02T15:13:02.315678,1.11,,,,,,,,,,,,,,,,,,,,,
10-1221,Bus 2 -> Bus 1 -> Patong,73,Bangkok Hospital Phuket,2559,2025-12-02T14:52:47.395695,2025-12-02T15:20:45.384943,16.0,2025-12-02T15:08:47.395695,11.97,8.0,2025-12-02T15:16:02.315678,4.72,,,,,,,,,,,,,,,,,,,,,
10-1221,Bus 2 -> Bus 1 -> Patong,74,Chillva Market,2715,2025-12-02T14:52:47.395695,2025-12-02T15:22:17.203002,18.0,2025-12-02T15:10:47.395695,11.5,10.0,2025-12-02T15:18:02.315678,4.25,,,,,,,,,,,,,,,,,,,,,
10-1221,Bus 2 -> Bus 1 -> Patong,75,Lotus Samkong,2809,2025-12-02T14:52:47.395695,2025-12-02T15:23:18.410221,19.0,2025-12-02T15:11:47.395695,11.52,11.0,2025-12-02T15:19:02.315678,4.27,,,,,,,,,,,,,,,,,,,,,
10-1221,Bus 2 -> Bus 1 -> Patong,76,Andamanda Phuket Waterpark,2935,2025-12-02T14:52:47.395695,2025-12-02T15:30:24.360739,21.0,2025-12-02T15:13:47.395695,16.62,13.0,2025-12-02T15:21:02.315678,9.37,2.0,2025-12-02T15:24:47.738589,5.61,,,,,,,,,,,,,,,,,,
10-1221,Bus 2 -> Bus 1 -> Patong,77,Kathu Fresh Market,3266,2025-12-02T14:52:47.395695,2025-12-02T15:35:28.963144,23.0,2025-12-02T15:15:47.395695,19.69,15.0,2025-12-02T15:23:02.315678,12.44,5.0,2025-12-02T15:27:47.738589,7.69,,,,,,,,,,,,,,,,,,
10-1221,Bus 2 -> Bus 1 -> Patong,78,PTT Station Kathu,3459,2025-12-02T14:52:47.395695,2025-12-02T15:40:38.386812,25.0,2025-12-02T15:17:47.395695,22.85,17.0,2025-12-02T15:25:02.315678,15.6,7.0,2025-12-02T15:29:47.738589,10.84,1.0,2025-12-02T15:39:01.438586,1.62,,,,,,,,,,,,,,,
10-1221,Bus 2 -> Bus 1 -> Patong,79,Siko,3649,2025-12-02T14:52:47.395695,2025-12-02T15:43:11.219069,27.0,2025-12-02T15:19:47.395695,23.4,19.0,2025-12-02T15:27:02.315678,16.15,8.0,2025-12-02T15:30:47.738589,12.39,3.0,2025-12-02T15:41:01.438586,2.16,,,,,,,,,,,,,,,
10-1221,Bus 2 -> Bus 1 -> Patong,80,Kathu Police Station,3736,2025-12-02T14:52:47.395695,2025-12-02T15:45:13.079568,28.0,2025-12-02T15:20:47.395695,24.43,20.0,2025-12-02T15:28:02.315678,17.18,9.0,2025-12-02T15:31:47.738589,13.42,4.0,2025-12-02T15:42:01.438586,3.19,,,,,,,,,,,,,,,
10-1221,Bus 2 -> Bus 1 -> Patong,81,Coffee Mania,4922,2025-12-02T14:52:47.395695,2025-12-02T16:04:30.372780,45.0,2025-12-02T15:37:47.395695,26.72,37.0,2025-12-02T15:45:02.315678,19.47,26.0,2025-12-02T15:48:47.738589,15.71,21.0,2025-12-02T15:59:01.438586,5.48,6.0,2025-12-02T16:02:24.065274,2.11,,,,,,,,,,,,
10-1149,Rawai -> Airport,28,"Bangla Patong ",3858,2025-12-02T14:52:47.395609,2025-12-02T14:57:23.100273,,,,,,,,,,,,,,,,,,,,,,,,,,,
10-1149,Rawai -> Airport,29,Four Point Patong,4204,2025-12-02T14:52:47.395609,2025-12-02T15:06:33.557078,7.0,2025-12-02T14:59:47.395609,6.77,,,,,,,,,,,,,,,,,,,,,,,,
10-1149,Rawai -> Airport,30,Kalim School,4320,2025-12-02T14:52:47.395609,2025-12-02T15:06:33.557078,8.0,2025-12-02T15:00:47.395609,5.77,,,,,,,,,,,,,,,,,,,,,,,,
10-1149,Rawai -> Airport,31,Kalim Bus Stop,4437,2025-12-02T14:52:47.395609,2025-12-02T15:06:33.557078,9.0,2025-12-02T15:01:47.395609,4.77,,,,,,,,,,,,,,,,,,,,,,,,
10-1149,Rawai -> Airport,32,Big C Kamala,5519,2025-12-02T14:52:47.395609,2025-12-02T15:15:14.187904,19.0,2025-12-02T15:11:47.395609,3.45,10.0,2025-12-02T15:18:05.120597,-2.85,,,,,,,,,,,,,,,,,,,,,
10-1149,Rawai -> Airport,33,Phuket Fantasea,5751,2025-12-02T14:52:47.395609,2025-12-02T15:20:19.288255,22.0,2025-12-02T15:14:47.395609,5.53,12.0,2025-12-02T15:20:05.120597,0.24,,,,,,,,,,,,,,,,,,,,,
10-1149,Rawai -> Airport,34,Kamala Muslim Cemetery,5863,2025-12-02T14:52:47.395609,2025-12-02T15:20:19.288255,23.0,2025-12-02T15:15:47.395609,4.53,13.0,2025-12-02T15:21:05.120597,-0.76,,,,,,,,,,,,,,,,,,,,,
10-1149,Rawai -> Airport,35,Cafe De Mar,5945,2025-12-02T14:52:47.395609,2025-12-02T15:20:19.288255,23.0,2025-12-02T15:15:47.395609,4.53,14.0,2025-12-02T15:22:05.120597,-1.76,,,,,,,,,,,,,,,,,,,,,
10-1149,Rawai -> Airport,36,Surin Beach,6442,2025-12-02T14:52:47.395609,2025-12-02T15:23:23.382470,28.0,2025-12-02T15:20:47.395609,2.6,18.0,2025-12-02T15:26:05.120597,-2.7,,,,,,,,,,,,,,,,,,,,,
10-1149,Rawai -> Airport,37,Lotus Cherngtalay,7024,2025-12-02T14:52:47.395609,2025-12-02T15:35:34.629251,34.0,2025-12-02T15:26:47.395609,8.79,25.0,2025-12-02T15:33:05.120597,2.49,7.0,2025-12-02T15:29:52.370289,5.7,,,,,,,,,,,,,,,,,,
10-1149,Rawai -> Airport,38,Laguna,7313,2025-12-02T14:52:47.395609,2025-12-02T15:49:18.382790,39.0,2025-12-02T15:31:47.395609,17.52,29.0,2025-12-02T15:37:05.120597,12.22,11.0,2025-12-02T15:33:52.370289,15.43,4.0,2025-12-02T15:42:07.371402,7.18,,,,,,,,,,,,,,,
10-1149,Rawai -> Airport,39,Cherngtalay School,7346,2025-12-02T14:52:47.395609,2025-12-02T15:49:18.382790,39.0,2025-12-02T15:31:47.395609,17.52,30.0,2025-12-02T15:38:05.120597,11.22,12.0,2025-12-02T15:34:52.370289,14.43,4.0,2025-12-02T15:42:07.371402,7.18,,,,,,,,,,,,,,,
10-1149,Rawai -> Airport,40,Baan Khian,8300,2025-12-02T14:52:47.395609,2025-12-02T16:08:08.654446,49.0,2025-12-02T15:41:47.395609,26.35,39.0,2025-12-02T15:47:05.120597,21.06,21.0,2025-12-02T15:43:52.370289,24.27,14.0,2025-12-02T15:52:07.371402,16.02,3.0,2025-12-02T15:57:24.844273,10.73,,,,,,,,,,,,
10-1149,Rawai -> Airport,41,Thalang Public Health Office,8532,2025-12-02T14:52:47.395609,2025-12-02T16:24:18.301995,51.0,2025-12-02T15:43:47.395609,40.52,42.0,2025-12-02T15:50:05.120597,34.22,23.0,2025-12-02T15:45:52.370289,38.43,16.0,2025-12-02T15:54:07.371402,30.18,6.0,2025-12-02T16:00:24.844273,23.89,2.0,2025-12-02T16:10:08.654446,14.16,1.0,2025-12-02T16:24:17.624138,0.01,,,,,,
10-1222,Patong -> Bus 1 -> Bus 2,91,Lotus Samkong,2484,2025-12-02T14:52:47.395944,2025-12-02T14:54:19.325752,,,,,,,,,,,,,,,,,,,,,,,,,,,
10-1222,Patong -> Bus 1 -> Bus 2,92,Chillva Market,2580,2025-12-02T14:52:47.395944,2025-12-02T14:58:23.487933,2.0,2025-12-02T14:54:47.395944,3.6,,,,,,,,,,,,,,,,,,,,,,,,
10-1222,Patong -> Bus 1 -> Bus 2,93,Bangkok Hospital Phuket,2727,2025-12-02T14:52:47.395944,2025-12-02T14:59:24.402925,4.0,2025-12-02T14:56:47.395944,2.62,,,,,,,,,,,,,,,,,,,,,,,,
10-1222,Patong -> Bus 1 -> Bus 2,94,Vachira Phuket Hospital,2966,2025-12-02T14:52:47.395944,2025-12-02T15:02:27.408859,8.0,2025-12-02T15:00:47.395944,1.67,,,,,,,,,,,,,,,,,,,,,,,,
10-1222,Patong -> Bus 1 -> Bus 2,95,Phuket Wittayalai School,3184,2025-12-02T14:52:47.395944,2025-12-02T15:08:33.713919,10.0,2025-12-02T15:02:47.395944,5.77,,,,,,,,,,,,,,,,,,,,,,,,
10-1222,Patong -> Bus 1 -> Bus 2,96,Satree Phuket School,3270,2025-12-02T14:52:47.395944,2025-12-02T15:08:33.713919,11.0,2025-12-02T15:03:47.395944,4.77,1.0,2025-12-02T15:09:02.808761,-0.48,,,,,,,,,,,,,,,,,,,,,
10-1222,Patong -> Bus 1 -> Bus 2,115,Sanamchai,3411,2025-12-02T14:52:47.395944,2025-12-02T15:09:34.699601,13.0,2025-12-02T15:05:47.395944,3.79,3.0,2025-12-02T15:11:02.808761,-1.47,,,,,,,,,,,,,,,,,,,,,
10-1223,Bus 2 -> Bus 1 -> Patong,81,Coffee Mania,4922,2025-12-02T14:52:47.395695,2025-12-02T15:00:24.914120,5.0,2025-12-02T14:57:47.395695,2.63,24.0,2025-12-02T16:21:55.198947,,28.0,2025-12-02T16:42:07.492618,,,,,,,,,,,,,,,,,,,
10-1207,Rawai -> Airport,24,Woraburi Karon,2369,2025-12-02T14:52:47.395609,2025-12-02T14:54:19.327803,1.0,2025-12-02T14:53:47.395609,0.53,,,,,,,,,,,,,,,,,,,,,,,,
10-1207,Rawai -> Airport,25,Karon Circle,2454,2025-12-02T14:52:47.395609,2025-12-02T14:55:20.014484,1.0,2025-12-02T14:53:47.395609,1.54,,,,,,,,,,,,,,,,,,,,,,,,
10-1207,Rawai -> Airport,26,"Secret cliff resort ",2997,2025-12-02T14:52:47.395609,2025-12-02T15:05:32.358536,6.0,2025-12-02T14:58:47.395609,6.75,,,,,,,,,,,,,,,,,,,,,,,,
10-1207,Rawai -> Airport,27,Patong Bus Stop,3674,2025-12-02T14:52:47.395609,2025-12-02T15:14:13.058573,13.0,2025-12-02T15:05:47.395609,8.43,3.0,2025-12-02T15:11:05.120597,3.13,,,,,,,,,,,,,,,,,,,,,
10-1207,Rawai -> Airport,28,"Bangla Patong ",3858,2025-12-02T14:52:47.395609,2025-12-02T15:36:35.573845,16.0,2025-12-02T15:08:47.395609,27.8,6.0,2025-12-02T15:14:05.120597,22.51,,,,,,,,,,,,,,,,,,,,,
10-1207,Rawai -> Airport,29,Four Point Patong,4204,2025-12-02T14:52:47.395609,2025-12-02T15:40:39.564495,23.0,2025-12-02T15:15:47.395609,24.87,13.0,2025-12-02T15:21:05.120597,19.57,7.0,2025-12-02T15:29:52.370289,10.79,5.0,2025-12-02T15:43:07.371402,-2.46,,,,,,,,,,,,,,,
10-1207,Rawai -> Airport,30,Kalim School,4320,2025-12-02T14:52:47.395609,2025-12-02T15:43:12.170022,24.0,2025-12-02T15:16:47.395609,26.41,14.0,2025-12-02T15:22:05.120597,21.12,7.0,2025-12-02T15:29:52.370289,13.33,6.0,2025-12-02T15:44:07.371402,-0.92,,,,,,,,,,,,,,,
10-1207,Rawai -> Airport,31,Kalim Bus Stop,4437,2025-12-02T14:52:47.395609,2025-12-02T15:44:13.505102,25.0,2025-12-02T15:17:47.395609,26.44,15.0,2025-12-02T15:23:05.120597,21.14,9.0,2025-12-02T15:31:52.370289,12.35,7.0,2025-12-02T15:45:07.371402,-0.9,,,,,,,,,,,,,,,
10-1207,Rawai -> Airport,32,Big C Kamala,5519,2025-12-02T14:52:47.395609,2025-12-02T15:54:24.844273,36.0,2025-12-02T15:28:47.395609,25.62,26.0,2025-12-02T15:34:05.120597,20.33,19.0,2025-12-02T15:41:52.370289,12.54,18.0,2025-12-02T15:56:07.371402,-1.71,,,,,,,,,,,,,,,
10-1207,Rawai -> Airport,33,Phuket Fantasea,5751,2025-12-02T14:52:47.395609,2025-12-02T15:58:28.684114,38.0,2025-12-02T15:30:47.395609,27.69,28.0,2025-12-02T15:36:05.120597,22.39,21.0,2025-12-02T15:43:52.370289,14.61,20.0,2025-12-02T15:58:07.371402,0.36,2.0,2025-12-02T15:55:23.352334,3.09,,,,,,,,,,,,
10-1207,Rawai -> Airport,34,Kamala Muslim Cemetery,5863,2025-12-02T14:52:47.395609,2025-12-02T16:00:31.251192,39.0,2025-12-02T15:31:47.395609,28.73,29.0,2025-12-02T15:37:05.120597,23.44,22.0,2025-12-02T15:44:52.370289,15.65,21.0,2025-12-02T15:59:07.371402,1.4,3.0,2025-12-02T15:56:23.352334,4.13,,,,,,,,,,,,
10-1207,Rawai -> Airport,35,Cafe De Mar,5945,2025-12-02T14:52:47.395609,2025-12-02T16:00:31.251192,40.0,2025-12-02T15:32:47.395609,27.73,30.0,2025-12-02T15:38:05.120597,22.44,23.0,2025-12-02T15:45:52.370289,14.65,22.0,2025-12-02T16:00:07.371402,0.4,4.0,2025-12-02T15:57:23.352334,3.13,,,,,,,,,,,,
10-1207,Rawai -> Airport,36,Surin Beach,6442,2025-12-02T14:52:47.395609,2025-12-02T16:07:07.128935,44.0,2025-12-02T15:36:47.395609,30.33,34.0,2025-12-02T15:42:05.120597,25.03,28.0,2025-12-02T15:50:52.370289,16.25,26.0,2025-12-02T16:04:07.371402,3.0,8.0,2025-12-02T16:01:23.352334,5.73,,,,,,,,,,,,
10-1207,Rawai -> Airport,37,Lotus Cherngtalay,7024,2025-12-02T14:52:47.395609,2025-12-02T16:16:13.323373,51.0,2025-12-02T15:43:47.395609,32.43,41.0,2025-12-02T15:49:05.120597,27.14,34.0,2025-12-02T15:56:52.370289,19.35,33.0,2025-12-02T16:11:07.371402,5.1,15.0,2025-12-02T16:08:23.352334,7.83,3.0,2025-12-02T16:11:08.654446,5.08,,,,,,,,,
10-1207,Rawai -> Airport,38,Laguna,7313,2025-12-02T14:52:47.395609,2025-12-02T16:26:19.519028,55.0,2025-12-02T15:47:47.395609,38.54,45.0,2025-12-02T15:53:05.120597,33.24,39.0,2025-12-02T16:01:52.370289,24.45,37.0,2025-12-02T16:15:07.371402,11.2,19.0,2025-12-02T16:12:23.352334,13.94,8.0,2025-12-02T16:16:08.654446,10.18,,,,,,,,,
10-1207,Rawai -> Airport,39,Cherngtalay School,7346,2025-12-02T14:52:47.395609,2025-12-02T16:27:20.118706,56.0,2025-12-02T15:48:47.395609,38.55,46.0,2025-12-02T15:54:05.120597,33.25,39.0,2025-12-02T16:01:52.370289,25.46,37.0,2025-12-02T16:15:07.371402,12.21,20.0,2025-12-02T16:13:23.352334,13.95,8.0,2025-12-02T16:16:08.654446,11.19,1.0,2025-12-02T16:24:17.624138,3.04,,,,,,
10-1207,Rawai -> Airport,40,Baan Khian,8300,2025-12-02T14:52:47.395609,2025-12-02T16:34:24.445201,65.0,2025-12-02T15:57:47.395609,36.62,55.0,2025-12-02T16:03:05.120597,31.32,49.0,2025-12-02T16:11:52.370289,22.53,47.0,2025-12-02T16:25:07.371402,9.28,29.0,2025-12-02T16:22:23.352334,12.02,17.0,2025-12-02T16:25:08.654446,9.26,10.0,2025-12-02T16:33:17.624138,1.11,,,,,,
10-1210,Rawai -> Airport,40,Baan Khian,8300,2025-12-02T14:52:47.395609,2025-12-02T14:56:21.720474,3.0,2025-12-02T14:55:47.395609,0.57,,,,,,,,,,,,,,,,,,,,,,,,
10-1210,Rawai -> Airport,41,Thalang Public Health Office,8532,2025-12-02T14:52:47.395609,2025-12-02T15:00:26.276194,6.0,2025-12-02T14:58:47.395609,1.65,,,,,,,,,,,,,,,,,,,,,,,,
10-1152,Airport -> Rawai,50,Kamala Muslim Cemetery,5026,2025-12-02T14:52:47.395442,2025-12-02T14:55:20.110985,,,,,,,,,,,,,,,,,,,,,,,,,,,
10-1152,Airport -> Rawai,51,Phuket Fantasea,5136,2025-12-02T14:52:47.395442,2025-12-02T14:55:20.110985,1.0,2025-12-02T14:53:47.395442,1.55,,,,,,,,,,,,,,,,,,,,,,,,
10-1152,Airport -> Rawai,52,Big C Kamala,5396,2025-12-02T14:52:47.395442,2025-12-02T15:05:32.830465,4.0,2025-12-02T14:56:47.395442,8.76,,,,,,,,,,,,,,,,,,,,,,,,
10-1152,Airport -> Rawai,53,Kalim Bus Stop,6450,2025-12-02T14:52:47.395442,2025-12-02T15:12:11.755313,14.0,2025-12-02T15:06:47.395442,5.41,3.0,2025-12-02T15:11:05.612050,1.1,,,,,,,,,,,,,,,,,,,,,
10-1152,Airport -> Rawai,54,Kalim School,6540,2025-12-02T14:52:47.395442,2025-12-02T15:16:16.863487,15.0,2025-12-02T15:07:47.395442,8.49,4.0,2025-12-02T15:12:05.612050,4.19,,,,,,,,,,,,,,,,,,,,,
10-1152,Airport -> Rawai,55,Diamond Cliff Resort & Spa,6630,2025-12-02T14:52:47.395442,2025-12-02T15:16:16.863487,16.0,2025-12-02T15:08:47.395442,7.49,5.0,2025-12-02T15:13:05.612050,3.19,,,,,,,,,,,,,,,,,,,,,
10-1152,Airport -> Rawai,59,"Secret cliff resort ",7899,2025-12-02T14:52:47.395442,2025-12-02T15:38:39.871344,35.0,2025-12-02T15:27:47.395442,10.87,24.0,2025-12-02T15:32:05.612050,6.57,,,,,,,,,,,,,,,,,,,,,
10-1152,Airport -> Rawai,60,Karon Circle,8431,2025-12-02T14:52:47.395442,2025-12-02T15:45:16.880393,40.0,2025-12-02T15:32:47.395442,12.49,29.0,2025-12-02T15:37:05.612050,8.19,,,,,,,,,,,,,,,,,,,,,
10-1152,Airport -> Rawai,61,Woraburi Karon,8523,2025-12-02T14:52:47.395442,2025-12-02T15:45:16.880393,41.0,2025-12-02T15:33:47.395442,11.49,30.0,2025-12-02T15:38:05.612050,7.19,,,,,,,,,,,,,,,,,,,,,
10-1152,Airport -> Rawai,62,Karon Stadium,8823,2025-12-02T14:52:47.395442,2025-12-02T15:49:21.833287,44.0,2025-12-02T15:36:47.395442,12.57,33.0,2025-12-02T15:41:05.612050,8.27,,,,,,,,,,,,,,,,,,,,,
10-1152,Airport -> Rawai,63,OZO Phuket,8979,2025-12-02T14:52:47.395442,2025-12-02T15:52:25.174095,46.0,2025-12-02T15:38:47.395442,13.63,35.0,2025-12-02T15:43:05.612050,9.33,,,,,,,,,,,,,,,,,,,,,
10-1152,Airport -> Rawai,64,Kata Palm,9111,2025-12-02T14:52:47.395442,2025-12-02T15:54:27.754334,48.0,2025-12-02T15:40:47.395442,13.67,37.0,2025-12-02T15:45:05.612050,9.37,,,,,,,,,,,,,,,,,,,,,
10-1152,Airport -> Rawai,65,Beyond hotel Kata,9157,2025-12-02T14:52:47.395442,2025-12-02T15:54:27.754334,49.0,2025-12-02T15:41:47.395442,12.67,38.0,2025-12-02T15:46:05.612050,8.37,,,,,,,,,,,,,,,,,,,,,
10-1152,Airport -> Rawai,66,Andaman Cannacia Resort,9327,2025-12-02T14:52:47.395442,2025-12-02T15:59:33.563577,51.0,2025-12-02T15:43:47.395442,15.77,40.0,2025-12-02T15:48:05.612050,11.47,,,,,,,,,,,,,,,,,,,,,
10-1152,Airport -> Rawai,67,Sai Yuan,10247,2025-12-02T14:52:47.395442,2025-12-02T16:06:40.427749,60.0,2025-12-02T15:52:47.395442,13.88,49.0,2025-12-02T15:57:05.612050,9.58,,,,,,,,,,,,,,,,,,,,,
10-1212,Rawai -> Airport,36,Surin Beach,6442,2025-12-02T14:52:47.395609,2025-12-02T14:53:18.510749,,,,,,,,,,,,,,,,,,,,,,,,,,,
10-1212,Rawai -> Airport,37,Lotus Cherngtalay,7024,2025-12-02T14:52:47.395609,2025-12-02T15:05:32.358536,7.0,2025-12-02T14:59:47.395609,5.75,,,,,,,,,,,,,,,,,,,,,,,,
10-1212,Rawai -> Airport,38,Laguna,7313,2025-12-02T14:52:47.395609,2025-12-02T15:16:15.182419,11.0,2025-12-02T15:03:47.395609,12.46,3.0,2025-12-02T15:11:05.120597,5.17,,,,,,,,,,,,,,,,,,,,,
10-1212,Rawai -> Airport,39,Cherngtalay School,7346,2025-12-02T14:52:47.395609,2025-12-02T15:16:15.182419,12.0,2025-12-02T15:04:47.395609,11.46,4.0,2025-12-02T15:12:05.120597,4.17,,,,,,,,,,,,,,,,,,,,,
10-1212,Rawai -> Airport,40,Baan Khian,8300,2025-12-02T14:52:47.395609,2025-12-02T15:27:27.228797,21.0,2025-12-02T15:13:47.395609,13.66,13.0,2025-12-02T15:21:05.120597,6.37,1.0,2025-12-02T15:23:52.370289,3.58,,,,,,,,,,,,,,,,,,
10-1212,Rawai -> Airport,41,Thalang Public Health Office,8532,2025-12-02T14:52:47.395609,2025-12-02T15:38:37.746216,24.0,2025-12-02T15:16:47.395609,21.84,16.0,2025-12-02T15:24:05.120597,14.54,4.0,2025-12-02T15:26:52.370289,11.76,,,,,,,,,,,,,,,,,,
10-1153,Airport -> Rawai,65,Beyond hotel Kata,9157,2025-12-02T14:52:47.395442,2025-12-02T14:53:18.548342,,,,,,,,,,,,,,,,,,,,,,,,,,,
10-1153,Airport -> Rawai,66,Andaman Cannacia Resort,9327,2025-12-02T14:52:47.395442,2025-12-02T14:56:21.874764,3.0,2025-12-02T14:55:47.395442,0.57,,,,,,,,,,,,,,,,,,,,,,,,
10-1153,Airport -> Rawai,67,Sai Yuan,10247,2025-12-02T14:52:47.395442,2025-12-02T15:05:32.830465,11.0,2025-12-02T15:03:47.395442,1.76,,,,,,,,,,,,,,,,,,,,,,,,
10-1208,Airport -> Rawai,65,Beyond hotel Kata,9157,2025-12-02T14:52:47.395442,2025-12-02T14:53:18.548342,,,,,,,,,,,,,,,,,,,,,,,,,,,
10-1208,Airport -> Rawai,66,Andaman Cannacia Resort,9327,2025-12-02T14:52:47.395442,2025-12-02T14:56:21.874764,3.0,2025-12-02T14:55:47.395442,0.57,,,,,,,,,,,,,,,,,,,,,,,,
10-1208,Airport -> Rawai,67,Sai Yuan,10247,2025-12-02T14:52:47.395442,2025-12-02T15:03:30.466061,11.0,2025-12-02T15:03:47.395442,-0.28,14.0,2025-12-02T16:28:46.198881,,,,,,,,,,,,,,,,,,,,,,
10-1264,Dragon Line,2,Queen Sirikit Park,56,2025-12-02T15:03:28.424179,2025-12-02T15:34:25.720656,1.0,2025-12-02T15:04:28.424179,29.95,,,,,,,,,,,,,,,,,,,,,,,,
10-1264,Dragon Line,3,Old Town Intersection,134,2025-12-02T15:03:28.424179,2025-12-02T15:36:57.573551,2.0,2025-12-02T15:05:28.424179,31.49,1.0,2025-12-02T15:34:24.659491,2.55,1.0,2025-12-02T15:34:55.202279,2.04,,,,,,,,,,,,,,,,,,
10-1264,Dragon Line,4,Government Savings Bank,159,2025-12-02T15:03:28.424179,2025-12-02T15:36:57.573551,3.0,2025-12-02T15:06:28.424179,30.49,2.0,2025-12-02T15:35:24.659491,1.55,2.0,2025-12-02T15:35:55.202279,1.04,,,,,,,,,,,,,,,,,,
10-1264,Dragon Line,5,Royal Phuket City Hotel,243,2025-12-02T15:03:28.424179,2025-12-02T15:37:27.975082,5.0,2025-12-02T15:08:28.424179,28.99,3.0,2025-12-02T15:36:24.659491,1.06,3.0,2025-12-02T15:36:55.202279,0.55,,,,,,,,,,,,,,,,,,
10-1264,Dragon Line,6,Pearl Hotel Phuket,333,2025-12-02T15:03:28.424179,2025-12-02T15:43:32.358270,7.0,2025-12-02T15:10:28.424179,33.07,5.0,2025-12-02T15:38:24.659491,5.13,5.0,2025-12-02T15:38:55.202279,4.62,,,,,,,,,,,,,,,,,,
10-1264,Dragon Line,7,Mc Donald's,435,2025-12-02T15:03:28.424179,2025-12-02T15:44:33.163092,10.0,2025-12-02T15:13:28.424179,31.08,8.0,2025-12-02T15:41:24.659491,3.14,8.0,2025-12-02T15:41:55.202279,2.63,,,,,,,,,,,,,,,,,,
10-1264,Dragon Line,8,Surin Circle Clock Tower,523,2025-12-02T15:03:28.424179,2025-12-02T15:47:35.544606,12.0,2025-12-02T15:15:28.424179,32.12,11.0,2025-12-02T15:44:24.659491,3.18,11.0,2025-12-02T15:44:55.202279,2.67,,,,,,,,,,,,,,,,,,
10-1264,Dragon Line,9,Municipal Parking,593,2025-12-02T15:03:28.424179,2025-12-02T15:48:06.073255,14.0,2025-12-02T15:17:28.424179,30.63,13.0,2025-12-02T15:46:24.659491,1.69,13.0,2025-12-02T15:46:55.202279,1.18,,,,,,,,,,,,,,,,,,
10-1264,Dragon Line,10,Krungsri Bank,647,2025-12-02T15:03:28.424179,2025-12-02T15:49:37.446528,16.0,2025-12-02T15:19:28.424179,30.15,14.0,2025-12-02T15:47:24.659491,2.21,14.0,2025-12-02T15:47:55.202279,1.7,1.0,2025-12-02T15:49:36.502083,0.02,,,,,,,,,,,,,,,
10-1264,Dragon Line,11,WANLAMUN & EGG E EGG @ OLD TOWN,692,2025-12-02T15:03:28.424179,2025-12-02T15:50:38.327354,17.0,2025-12-02T15:20:28.424179,30.17,16.0,2025-12-02T15:49:24.659491,1.23,16.0,2025-12-02T15:49:55.202279,0.72,2.0,2025-12-02T15:50:36.502083,0.03,,,,,,,,,,,,,,,
10-1264,Dragon Line,12,Phuket Thaihua Museum,760,2025-12-02T15:03:28.424179,2025-12-02T15:52:09.555154,19.0,2025-12-02T15:22:28.424179,29.69,18.0,2025-12-02T15:51:24.659491,0.75,18.0,2025-12-02T15:51:55.202279,0.24,3.0,2025-12-02T15:51:36.502083,0.55,,,,,,,,,,,,,,,
10-1264,Dragon Line,13,Dibuk Road,830,2025-12-02T15:03:28.424179,2025-12-02T15:53:40.801675,22.0,2025-12-02T15:25:28.424179,28.21,20.0,2025-12-02T15:53:24.659491,0.27,20.0,2025-12-02T15:53:55.202279,-0.24,5.0,2025-12-02T15:53:36.502083,0.07,,,,,,,,,,,,,,,
10-1264,Dragon Line,14,Mongkhonnimit Temple,886,2025-12-02T15:03:28.424179,2025-12-02T15:56:12.825954,23.0,2025-12-02T15:26:28.424179,29.74,21.0,2025-12-02T15:54:24.659491,1.8,21.0,2025-12-02T15:54:55.202279,1.29,7.0,2025-12-02T15:55:36.502083,0.61,,,,,,,,,,,,,,,
10-1264,Dragon Line,15,Limelight Phuket,960,2025-12-02T15:03:28.424179,2025-12-02T15:57:13.546775,25.0,2025-12-02T15:28:28.424179,28.75,24.0,2025-12-02T15:57:24.659491,-0.19,24.0,2025-12-02T15:57:55.202279,-0.69,9.0,2025-12-02T15:57:36.502083,-0.38,,,,,,,,,,,,,,,
10-1204,Airport -> Rawai,43,Thalang Public Health Office,2368,2025-12-02T15:03:30.466061,2025-12-02T15:21:22.427794,17.0,2025-12-02T15:20:30.466061,0.87,2.0,2025-12-02T15:20:49.489732,0.55,,,,,,,,,,,,,,,,,,,,,
10-1204,Airport -> Rawai,44,Baan Khian,2586,2025-12-02T15:03:30.466061,2025-12-02T15:29:30.294221,20.0,2025-12-02T15:23:30.466061,6.0,5.0,2025-12-02T15:23:49.489732,5.68,,,,,,,,,,,,,,,,,,,,,
10-1204,Airport -> Rawai,45,Cherngtalay School,3541,2025-12-02T15:03:30.466061,2025-12-02T15:38:39.871344,29.0,2025-12-02T15:32:30.466061,6.16,13.0,2025-12-02T15:31:49.489732,6.84,5.0,2025-12-02T15:38:34.745395,0.09,,,,,,,,,,,,,,,,,,
10-1204,Airport -> Rawai,46,Laguna,3576,2025-12-02T15:03:30.466061,2025-12-02T15:43:14.980093,29.0,2025-12-02T15:32:30.466061,10.74,14.0,2025-12-02T15:32:49.489732,10.42,5.0,2025-12-02T15:38:34.745395,4.67,,,,,,,,,,,,,,,,,,
10-1204,Airport -> Rawai,47,Lotus Cherngtalay,3837,2025-12-02T15:03:30.466061,2025-12-02T15:52:25.174095,33.0,2025-12-02T15:36:30.466061,15.91,18.0,2025-12-02T15:36:49.489732,15.59,9.0,2025-12-02T15:42:34.745395,9.84,2.0,2025-12-02T15:50:51.084167,1.57,,,,,,,,,,,,,,,
10-1204,Airport -> Rawai,51,Phuket Fantasea,5136,2025-12-02T15:03:30.466061,2025-12-02T16:07:11.239963,45.0,2025-12-02T15:48:30.466061,18.68,30.0,2025-12-02T15:48:49.489732,18.36,21.0,2025-12-02T15:54:34.745395,12.61,14.0,2025-12-02T16:02:51.084167,4.34,,,,,,,,,,,,,,,
10-1204,Airport -> Rawai,52,Big C Kamala,5396,2025-12-02T15:03:30.466061,2025-12-02T16:07:11.239963,47.0,2025-12-02T15:50:30.466061,16.68,32.0,2025-12-02T15:50:49.489732,16.36,24.0,2025-12-02T15:57:34.745395,9.61,17.0,2025-12-02T16:05:51.084167,1.34,,,,,,,,,,,,,,,
10-1204,Airport -> Rawai,53,Kalim Bus Stop,6450,2025-12-02T15:03:30.466061,2025-12-02T16:19:19.175564,58.0,2025-12-02T16:01:30.466061,17.81,43.0,2025-12-02T16:01:49.489732,17.49,34.0,2025-12-02T16:07:34.745395,11.74,27.0,2025-12-02T16:15:51.084167,3.47,,,,,,,,,,,,,,,
10-1204,Airport -> Rawai,54,Kalim School,6540,2025-12-02T15:03:30.466061,2025-12-02T16:29:25.270681,59.0,2025-12-02T16:02:30.466061,26.91,44.0,2025-12-02T16:02:49.489732,26.6,35.0,2025-12-02T16:08:34.745395,20.84,28.0,2025-12-02T16:16:51.084167,12.57,,,,,,,,,,,,,,,
10-1204,Airport -> Rawai,55,Diamond Cliff Resort & Spa,6630,2025-12-02T15:03:30.466061,2025-12-02T16:35:29.073953,60.0,2025-12-02T16:03:30.466061,31.98,45.0,2025-12-02T16:03:49.489732,31.66,36.0,2025-12-02T16:09:34.745395,25.91,30.0,2025-12-02T16:18:51.084167,16.63,,,,,,,,,,,,,,,
10-1265,Dragon Line,3,Old Town Intersection,134,2025-12-02T15:08:33.215986,2025-12-02T15:10:35.339960,1.0,2025-12-02T15:09:33.215986,1.04,,,,,,,,,,,,,,,,,,,,,,,,
10-1265,Dragon Line,4,Government Savings Bank,159,2025-12-02T15:08:33.215986,2025-12-02T15:10:35.339960,1.0,2025-12-02T15:09:33.215986,1.04,,,,,,,,,,,,,,,,,,,,,,,,
10-1265,Dragon Line,5,Royal Phuket City Hotel,243,2025-12-02T15:08:33.215986,2025-12-02T15:11:36.480710,3.0,2025-12-02T15:11:33.215986,0.05,,,,,,,,,,,,,,,,,,,,,,,,
10-1265,Dragon Line,6,Pearl Hotel Phuket,333,2025-12-02T15:08:33.215986,2025-12-02T15:17:11.640821,5.0,2025-12-02T15:13:33.215986,3.64,,,,,,,,,,,,,,,,,,,,,,,,
10-1265,Dragon Line,7,Mc Donald's,435,2025-12-02T15:08:33.215986,2025-12-02T15:18:12.490050,8.0,2025-12-02T15:16:33.215986,1.65,,,,,,,,,,,,,,,,,,,,,,,,
10-1265,Dragon Line,8,Surin Circle Clock Tower,523,2025-12-02T15:08:33.215986,2025-12-02T15:20:44.494461,11.0,2025-12-02T15:19:33.215986,1.19,1.0,2025-12-02T16:19:27.746759,,,,,,,,,,,,,,,,,,,,,,
10-1265,Dragon Line,9,Municipal Parking,593,2025-12-02T15:08:33.215986,2025-12-02T15:21:14.866404,13.0,2025-12-02T15:21:33.215986,-0.31,2.0,2025-12-02T16:20:27.746759,,,,,,,,,,,,,,,,,,,,,,
10-1265,Dragon Line,10,Krungsri Bank,647,2025-12-02T15:08:33.215986,2025-12-02T15:22:15.694773,15.0,2025-12-02T15:23:33.215986,-1.29,3.0,2025-12-02T16:21:27.746759,,,,,,,,,,,,,,,,,,,,,,
10-1265,Dragon Line,11,WANLAMUN & EGG E EGG @ OLD TOWN,692,2025-12-02T15:08:33.215986,2025-12-02T15:23:16.548707,16.0,2025-12-02T15:24:33.215986,-1.28,4.0,2025-12-02T16:22:27.746759,,,,,,,,,,,,,,,,,,,,,,
10-1265,Dragon Line,12,Phuket Thaihua Museum,760,2025-12-02T15:08:33.215986,2025-12-02T15:25:18.158470,18.0,2025-12-02T15:26:33.215986,-1.25,1.0,2025-12-02T15:24:46.959245,0.52,,,,,,,,,,,,,,,,,,,,,
10-1265,Dragon Line,13,Dibuk Road,830,2025-12-02T15:08:33.215986,2025-12-02T15:26:18.872432,20.0,2025-12-02T15:28:33.215986,-2.24,3.0,2025-12-02T15:26:46.959245,-0.47,,,,,,,,,,,,,,,,,,,,,
10-1265,Dragon Line,14,Mongkhonnimit Temple,886,2025-12-02T15:08:33.215986,2025-12-02T15:27:19.629189,22.0,2025-12-02T15:30:33.215986,-3.23,4.0,2025-12-02T15:27:46.959245,-0.46,,,,,,,,,,,,,,,,,,,,,
10-1265,Dragon Line,15,Limelight Phuket,960,2025-12-02T15:08:33.215986,2025-12-02T15:28:20.367531,24.0,2025-12-02T15:32:33.215986,-4.21,6.0,2025-12-02T15:29:46.959245,-1.44,,,,,,,,,,,,,,,,,,,,,
10-1219,Bus 2 -> Bus 1 -> Patong,69,Sanamchai,1886,2025-12-02T15:10:35.151036,2025-12-02T16:17:39.587894,1.0,2025-12-02T15:11:35.151036,66.07,7.0,2025-12-02T16:00:51.156059,16.81,1.0,2025-12-02T16:17:08.635428,0.52,,,,,,,,,,,,,,,,,,
10-1219,Patong -> Bus 1 -> Bus 2,100,Phuket Provincial Cooperative Office,4180,2025-12-02T15:11:36.673109,2025-12-02T15:13:39.282857,1.0,2025-12-02T15:12:36.673109,1.04,,,,,,,,,,,,,,,,,,,,,,,,
10-1219,Patong -> Bus 1 -> Bus 2,101,Baan Natkamon,4358,2025-12-02T15:11:36.673109,2025-12-02T15:16:11.714450,3.0,2025-12-02T15:14:36.673109,1.58,,,,,,,,,,,,,,,,,,,,,,,,
10-1219,Patong -> Bus 1 -> Bus 2,102,Big C Mini Kingkaew,4507,2025-12-02T15:11:36.673109,2025-12-02T15:16:11.714450,4.0,2025-12-02T15:15:36.673109,0.58,,,,,,,,,,,,,,,,,,,,,,,,
10-1219,Patong -> Bus 1 -> Bus 2,103,Soi Thachin,4616,2025-12-02T15:11:36.673109,2025-12-02T15:17:12.666130,5.0,2025-12-02T15:16:36.673109,0.6,,,,,,,,,,,,,,,,,,,,,,,,
10-1219,Patong -> Bus 1 -> Bus 2,104,Dcondo Campus Kuku,4776,2025-12-02T15:11:36.673109,2025-12-02T15:18:14.160464,6.0,2025-12-02T15:17:36.673109,0.62,,,,,,,,,,,,,,,,,,,,,,,,
10-1219,Patong -> Bus 1 -> Bus 2,105,Ban Kuku School,4859,2025-12-02T15:11:36.673109,2025-12-02T15:19:15.329785,7.0,2025-12-02T15:18:36.673109,0.64,,,,,,,,,,,,,,,,,,,,,,,,
10-1219,Patong -> Bus 1 -> Bus 2,106,Big C Market Thepkrasattri,5122,2025-12-02T15:11:36.673109,2025-12-02T15:22:18.241827,9.0,2025-12-02T15:20:36.673109,1.69,,,,,,,,,,,,,,,,,,,,,,,,
10-1196,Rawai -> Airport,28,"Bangla Patong ",3858,2025-12-02T15:12:10.744013,2025-12-02T15:29:28.524037,3.0,2025-12-02T15:15:10.744013,14.3,,,,,,,,,,,,,,,,,,,,,,,,
10-1196,Rawai -> Airport,29,Four Point Patong,4204,2025-12-02T15:12:10.744013,2025-12-02T15:33:32.682680,10.0,2025-12-02T15:22:10.744013,11.37,6.0,2025-12-02T15:35:28.524037,-1.93,,,,,,,,,,,,,,,,,,,,,
10-1196,Rawai -> Airport,30,Kalim School,4320,2025-12-02T15:12:10.744013,2025-12-02T15:36:35.573845,11.0,2025-12-02T15:23:10.744013,13.41,7.0,2025-12-02T15:36:28.524037,0.12,,,,,,,,,,,,,,,,,,,,,
10-1196,Rawai -> Airport,31,Kalim Bus Stop,4437,2025-12-02T15:12:10.744013,2025-12-02T15:37:36.565875,12.0,2025-12-02T15:24:10.744013,13.43,8.0,2025-12-02T15:37:28.524037,0.13,,,,,,,,,,,,,,,,,,,,,
10-1196,Rawai -> Airport,32,Big C Kamala,5519,2025-12-02T15:12:10.744013,2025-12-02T15:49:18.382790,23.0,2025-12-02T15:35:10.744013,14.13,19.0,2025-12-02T15:48:28.524037,0.83,6.0,2025-12-02T15:48:11.248443,1.12,,,,,,,,,,,,,,,,,,
10-1196,Rawai -> Airport,33,Phuket Fantasea,5751,2025-12-02T15:12:10.744013,2025-12-02T15:54:24.844273,25.0,2025-12-02T15:37:10.744013,17.24,21.0,2025-12-02T15:50:28.524037,3.94,8.0,2025-12-02T15:50:11.248443,4.23,,,,,,,,,,,,,,,,,,
10-1196,Rawai -> Airport,34,Kamala Muslim Cemetery,5863,2025-12-02T15:12:10.744013,2025-12-02T15:54:24.844273,26.0,2025-12-02T15:38:10.744013,16.24,22.0,2025-12-02T15:51:28.524037,2.94,9.0,2025-12-02T15:51:11.248443,3.23,,,,,,,,,,,,,,,,,,
10-1196,Rawai -> Airport,35,Cafe De Mar,5945,2025-12-02T15:12:10.744013,2025-12-02T15:54:24.844273,27.0,2025-12-02T15:39:10.744013,15.24,23.0,2025-12-02T15:52:28.524037,1.94,10.0,2025-12-02T15:52:11.248443,2.23,,,,,,,,,,,,,,,,,,
10-1196,Rawai -> Airport,36,Surin Beach,6442,2025-12-02T15:12:10.744013,2025-12-02T15:59:29.691733,31.0,2025-12-02T15:43:10.744013,16.32,27.0,2025-12-02T15:56:28.524037,3.02,14.0,2025-12-02T15:56:11.248443,3.31,,,,,,,,,,,,,,,,,,
10-1196,Rawai -> Airport,37,Lotus Cherngtalay,7024,2025-12-02T15:12:10.744013,2025-12-02T16:06:36.523913,38.0,2025-12-02T15:50:10.744013,16.43,34.0,2025-12-02T16:03:28.524037,3.13,21.0,2025-12-02T16:03:11.248443,3.42,4.0,2025-12-02T16:03:29.691733,3.11,,,,,,,,,,,,,,,
10-1196,Rawai -> Airport,38,Laguna,7313,2025-12-02T15:12:10.744013,2025-12-02T16:17:14.019545,42.0,2025-12-02T15:54:10.744013,23.05,39.0,2025-12-02T16:08:28.524037,8.76,25.0,2025-12-02T16:07:11.248443,10.05,9.0,2025-12-02T16:08:29.691733,8.74,2.0,2025-12-02T16:14:11.054383,3.05,,,,,,,,,,,,
10-1196,Rawai -> Airport,39,Cherngtalay School,7346,2025-12-02T15:12:10.744013,2025-12-02T16:18:14.641524,43.0,2025-12-02T15:55:10.744013,23.06,39.0,2025-12-02T16:08:28.524037,9.77,26.0,2025-12-02T16:08:11.248443,10.06,9.0,2025-12-02T16:08:29.691733,9.75,3.0,2025-12-02T16:15:11.054383,3.06,,,,,,,,,,,,
10-1196,Rawai -> Airport,40,Baan Khian,8300,2025-12-02T15:12:10.744013,2025-12-02T16:33:23.847386,52.0,2025-12-02T16:04:10.744013,29.22,48.0,2025-12-02T16:17:28.524037,15.92,35.0,2025-12-02T16:17:11.248443,16.21,19.0,2025-12-02T16:18:29.691733,14.9,12.0,2025-12-02T16:24:11.054383,9.21,,,,,,,,,,,,
10-1219,Bus 2 -> Bus 1 -> Patong,114,Phuket Provincial Cooperative Office,1116,2025-12-02T15:14:09.056565,2025-12-02T15:49:47.272052,1.0,2025-12-02T15:15:09.056565,34.64,,,,,,,,,,,,,,,,,,,,,,,,
10-1219,Bus 2 -> Bus 1 -> Patong,115,Sanamchai,1246,2025-12-02T15:14:09.056565,2025-12-02T15:49:47.272052,2.0,2025-12-02T15:16:09.056565,33.64,,,,,,,,,,,,,,,,,,,,,,,,
10-1219,Bus 2 -> Bus 1 -> Patong,68,Phuket Bus Terminal 1,1587,2025-12-02T15:14:09.056565,2025-12-02T15:55:23.049310,9.0,2025-12-02T15:23:09.056565,32.23,,,,,,,,,,,,,,,,,,,,,,,,
10-1223,Patong -> Bus 1 -> Bus 2,85,Makro Nanai,371,2025-12-02T15:17:12.666130,2025-12-02T15:21:17.229248,1.0,2025-12-02T15:18:12.666130,3.08,,,,,,,,,,,,,,,,,,,,,,,,
10-1223,Patong -> Bus 1 -> Bus 2,86,Kathu Police Station,1550,2025-12-02T15:17:12.666130,2025-12-02T15:48:16.780468,19.0,2025-12-02T15:36:12.666130,12.07,6.0,2025-12-02T15:38:26.827772,9.83,,,,,,,,,,,,,,,,,,,,,
10-1223,Patong -> Bus 1 -> Bus 2,87,Siko,1652,2025-12-02T15:17:12.666130,2025-12-02T15:51:19.910711,20.0,2025-12-02T15:37:12.666130,14.12,7.0,2025-12-02T15:39:26.827772,11.88,1.0,2025-12-02T15:48:15.497505,3.07,,,,,,,,,,,,,,,,,,
10-1223,Patong -> Bus 1 -> Bus 2,88,PTT Station Kathu,1843,2025-12-02T15:17:12.666130,2025-12-02T15:52:20.841561,21.0,2025-12-02T15:38:12.666130,14.14,9.0,2025-12-02T15:41:26.827772,10.9,2.0,2025-12-02T15:49:15.497505,3.09,,,,,,,,,,,,,,,,,,
10-1223,Patong -> Bus 1 -> Bus 2,89,Kathu Fresh Market,2031,2025-12-02T15:17:12.666130,2025-12-02T15:57:25.571137,23.0,2025-12-02T15:40:12.666130,17.22,11.0,2025-12-02T15:43:26.827772,13.98,4.0,2025-12-02T15:51:15.497505,6.17,,,,,,,,,,,,,,,,,,
10-1223,Patong -> Bus 1 -> Bus 2,90,Andamanda Phuket Waterpark,2377,2025-12-02T15:17:12.666130,2025-12-02T16:01:29.305511,26.0,2025-12-02T15:43:12.666130,18.28,13.0,2025-12-02T15:45:26.827772,16.04,7.0,2025-12-02T15:54:15.497505,7.23,,,,,,,,,,,,,,,,,,
10-1223,Patong -> Bus 1 -> Bus 2,91,Lotus Samkong,2484,2025-12-02T15:17:12.666130,2025-12-02T16:06:33.410990,27.0,2025-12-02T15:44:12.666130,22.35,14.0,2025-12-02T15:46:26.827772,20.11,8.0,2025-12-02T15:55:15.497505,11.3,,,,,,,,,,,,,,,,,,
10-1223,Patong -> Bus 1 -> Bus 2,92,Chillva Market,2580,2025-12-02T15:17:12.666130,2025-12-02T16:08:35.245698,28.0,2025-12-02T15:45:12.666130,23.38,15.0,2025-12-02T15:47:26.827772,21.14,9.0,2025-12-02T15:56:15.497505,12.33,1.0,2025-12-02T16:03:29.776379,5.09,,,,,,,,,,,,,,,
10-1223,Patong -> Bus 1 -> Bus 2,93,Bangkok Hospital Phuket,2727,2025-12-02T15:17:12.666130,2025-12-02T16:11:36.973514,30.0,2025-12-02T15:47:12.666130,24.41,18.0,2025-12-02T15:50:26.827772,21.17,11.0,2025-12-02T15:58:15.497505,13.36,4.0,2025-12-02T16:06:29.776379,5.12,,,,,,,,,,,,,,,
10-1223,Patong -> Bus 1 -> Bus 2,94,Vachira Phuket Hospital,2966,2025-12-02T15:17:12.666130,2025-12-02T16:14:08.250701,34.0,2025-12-02T15:51:12.666130,22.93,21.0,2025-12-02T15:53:26.827772,20.69,15.0,2025-12-02T16:02:15.497505,11.88,7.0,2025-12-02T16:09:29.776379,4.64,,,,,,,,,,,,,,,
10-1223,Patong -> Bus 1 -> Bus 2,95,Phuket Wittayalai School,3184,2025-12-02T15:17:12.666130,2025-12-02T16:20:11.603778,36.0,2025-12-02T15:53:12.666130,26.98,24.0,2025-12-02T15:56:26.827772,23.75,18.0,2025-12-02T16:05:15.497505,14.94,10.0,2025-12-02T16:12:29.776379,7.7,1.0,2025-12-02T16:18:40.125450,1.52,,,,,,,,,,,,
10-1223,Patong -> Bus 1 -> Bus 2,96,Satree Phuket School,3270,2025-12-02T15:17:12.666130,2025-12-02T16:22:43.012200,37.0,2025-12-02T15:54:12.666130,28.51,25.0,2025-12-02T15:57:26.827772,25.27,19.0,2025-12-02T16:06:15.497505,16.46,11.0,2025-12-02T16:13:29.776379,9.22,2.0,2025-12-02T16:19:40.125450,3.05,,,,,,,,,,,,
10-1219,Bus 2 -> Bus 1 -> Patong,109,Ban Kuku School,427,2025-12-02T15:20:45.384943,2025-12-02T15:41:09.143600,2.0,2025-12-02T15:22:45.384943,18.4,,,,,,,,,,,,,,,,,,,,,,,,
10-1219,Bus 2 -> Bus 1 -> Patong,110,Dcondo Campus Kuku,522,2025-12-02T15:20:45.384943,2025-12-02T15:43:11.219069,3.0,2025-12-02T15:23:45.384943,19.43,,,,,,,,,,,,,,,,,,,,,,,,
10-1219,Bus 2 -> Bus 1 -> Patong,111,Soi Thachin,680,2025-12-02T15:20:45.384943,2025-12-02T15:43:11.219069,5.0,2025-12-02T15:25:45.384943,17.43,,,,,,,,,,,,,,,,,,,,,,,,
10-1219,Bus 2 -> Bus 1 -> Patong,112,Big C Mini Kingkaew,789,2025-12-02T15:20:45.384943,2025-12-02T15:44:12.168354,6.0,2025-12-02T15:26:45.384943,17.45,,,,,,,,,,,,,,,,,,,,,,,,
10-1219,Bus 2 -> Bus 1 -> Patong,113,Baan Natkamon,939,2025-12-02T15:20:45.384943,2025-12-02T15:45:13.079568,8.0,2025-12-02T15:28:45.384943,16.46,,,,,,,,,,,,,,,,,,,,,,,,
10-1151,Rawai -> Airport,17,Sai Yuan,642,2025-12-02T15:22:21.461436,2025-12-02T15:28:27.958945,4.0,2025-12-02T15:26:21.461436,2.11,,,,,,,,,,,,,,,,,,,,,,,,
10-1151,Rawai -> Airport,18,Andaman Cannacia Resort,1565,2025-12-02T15:22:21.461436,2025-12-02T15:36:35.573845,12.0,2025-12-02T15:34:21.461436,2.24,,,,,,,,,,,,,,,,,,,,,,,,
10-1151,Rawai -> Airport,19,Beyond hotel Kata,1728,2025-12-02T15:22:21.461436,2025-12-02T15:40:39.564495,14.0,2025-12-02T15:36:21.461436,4.3,1.0,2025-12-02T15:38:36.565875,2.05,,,,,,,,,,,,,,,,,,,,,
10-1151,Rawai -> Airport,20,Kata Palm,1780,2025-12-02T15:22:21.461436,2025-12-02T15:41:10.201567,15.0,2025-12-02T15:37:21.461436,3.81,2.0,2025-12-02T15:39:36.565875,1.56,,,,,,,,,,,,,,,,,,,,,
10-1151,Rawai -> Airport,21,OZO Kata,1937,2025-12-02T15:22:21.461436,2025-12-02T15:43:12.170022,17.0,2025-12-02T15:39:21.461436,3.85,4.0,2025-12-02T15:41:36.565875,1.59,,,,,,,,,,,,,,,,,,,,,
10-1151,Rawai -> Airport,22,Peach Blossom,1963,2025-12-02T15:22:21.461436,2025-12-02T15:45:14.398866,18.0,2025-12-02T15:40:21.461436,4.88,5.0,2025-12-02T15:42:36.565875,2.63,,,,,,,,,,,,,,,,,,,,,
10-1151,Rawai -> Airport,23,Karon Stadium,2064,2025-12-02T15:22:21.461436,2025-12-02T15:46:15.384534,19.0,2025-12-02T15:41:21.461436,4.9,6.0,2025-12-02T15:43:36.565875,2.65,,,,,,,,,,,,,,,,,,,,,
10-1151,Rawai -> Airport,24,Woraburi Karon,2369,2025-12-02T15:22:21.461436,2025-12-02T15:53:23.352334,23.0,2025-12-02T15:45:21.461436,8.03,10.0,2025-12-02T15:47:36.565875,5.78,,,,,,,,,,,,,,,,,,,,,
10-1151,Rawai -> Airport,25,Karon Circle,2454,2025-12-02T15:22:21.461436,2025-12-02T15:53:23.352334,24.0,2025-12-02T15:46:21.461436,7.03,11.0,2025-12-02T15:48:36.565875,4.78,,,,,,,,,,,,,,,,,,,,,
10-1151,Rawai -> Airport,27,Patong Bus Stop,3674,2025-12-02T15:22:21.461436,2025-12-02T16:23:17.624138,35.0,2025-12-02T15:57:21.461436,25.94,22.0,2025-12-02T15:59:36.565875,23.68,12.0,2025-12-02T16:05:23.352334,17.9,,,,,,,,,,,,,,,,,,
10-1265,Dragon Line,2,Queen Sirikit Park,56,2025-12-02T15:29:20.910191,2025-12-02T15:30:22.036449,1.0,2025-12-02T15:30:20.910191,0.02,,,,,,,,,,,,,,,,,,,,,,,,
10-1153,Rawai -> Airport,17,Sai Yuan,642,2025-12-02T15:29:28.524037,2025-12-02T16:35:25.065957,8.0,2025-12-02T15:37:28.524037,57.94,,,,,,,,,,,,,,,,,,,,,,,,
10-1205,Airport -> Rawai,43,Thalang Public Health Office,2368,2025-12-02T15:32:33.122860,2025-12-02T15:51:24.123333,17.0,2025-12-02T15:49:33.122860,1.85,,,,,,,,,,,,,,,,,,,,,,,,
10-1205,Airport -> Rawai,44,Baan Khian,2586,2025-12-02T15:32:33.122860,2025-12-02T16:06:40.427749,19.0,2025-12-02T15:51:33.122860,15.12,2.0,2025-12-02T15:50:20.035400,16.34,1.0,2025-12-02T16:03:36.081221,3.07,,,,,,,,,,,,,,,,,,
10-1205,Airport -> Rawai,45,Cherngtalay School,3541,2025-12-02T15:32:33.122860,2025-12-02T16:11:14.185589,28.0,2025-12-02T16:00:33.122860,10.68,11.0,2025-12-02T15:59:20.035400,11.9,10.0,2025-12-02T16:12:36.081221,-1.36,,,,,,,,,,,,,,,,,,
10-1205,Airport -> Rawai,46,Laguna,3576,2025-12-02T15:32:33.122860,2025-12-02T16:12:14.770527,29.0,2025-12-02T16:01:33.122860,10.69,11.0,2025-12-02T15:59:20.035400,12.91,10.0,2025-12-02T16:12:36.081221,-0.36,,,,,,,,,,,,,,,,,,
10-1205,Airport -> Rawai,47,Lotus Cherngtalay,3837,2025-12-02T15:32:33.122860,2025-12-02T16:19:19.175564,32.0,2025-12-02T16:04:33.122860,14.77,15.0,2025-12-02T16:03:20.035400,15.99,14.0,2025-12-02T16:16:36.081221,2.72,2.0,2025-12-02T16:19:47.996991,-0.48,,,,,,,,,,,,,,,
10-1205,Airport -> Rawai,48,Surin Beach,4456,2025-12-02T15:32:33.122860,2025-12-02T16:28:24.694851,38.0,2025-12-02T16:10:33.122860,17.86,20.0,2025-12-02T16:08:20.035400,20.08,19.0,2025-12-02T16:21:36.081221,6.81,8.0,2025-12-02T16:25:47.996991,2.61,,,,,,,,,,,,,,,
10-1205,Airport -> Rawai,49,Intercontinental Kamala,4912,2025-12-02T15:32:33.122860,2025-12-02T16:32:27.065107,42.0,2025-12-02T16:14:33.122860,17.9,25.0,2025-12-02T16:13:20.035400,19.12,24.0,2025-12-02T16:26:36.081221,5.85,12.0,2025-12-02T16:29:47.996991,2.65,,,,,,,,,,,,,,,
10-1205,Airport -> Rawai,50,Kamala Muslim Cemetery,5026,2025-12-02T15:32:33.122860,2025-12-02T16:33:27.793736,43.0,2025-12-02T16:15:33.122860,17.91,26.0,2025-12-02T16:14:20.035400,19.13,25.0,2025-12-02T16:27:36.081221,5.86,13.0,2025-12-02T16:30:47.996991,2.66,,,,,,,,,,,,,,,
10-1205,Airport -> Rawai,51,Phuket Fantasea,5136,2025-12-02T15:32:33.122860,2025-12-02T16:36:29.830192,44.0,2025-12-02T16:16:33.122860,19.95,27.0,2025-12-02T16:15:20.035400,21.16,26.0,2025-12-02T16:28:36.081221,7.9,14.0,2025-12-02T16:31:47.996991,4.7,1.0,2025-12-02T16:33:57.468025,2.54,,,,,,,,,,,,
10-1218,Bus 2 -> Bus 1 -> Patong,69,Sanamchai,1886,2025-12-02T15:33:27.117053,2025-12-02T16:08:34.337569,6.0,2025-12-02T15:39:27.117053,29.12,6.0,2025-12-02T16:11:31.314485,-2.95,6.0,2025-12-02T16:11:31.314485,-2.95,,,,,,,,,,,,,,,,,,
10-1218,Bus 2 -> Bus 1 -> Patong,70,Satree Phuket School,2019,2025-12-02T15:33:27.117053,2025-12-02T16:10:35.546535,8.0,2025-12-02T15:41:27.117053,29.14,8.0,2025-12-02T16:13:31.314485,-2.93,8.0,2025-12-02T16:13:31.314485,-2.93,,,,,,,,,,,,,,,,,,
10-1218,Bus 2 -> Bus 1 -> Patong,71,Phuket Wittayalai School,2111,2025-12-02T15:33:27.117053,2025-12-02T16:22:42.541913,10.0,2025-12-02T15:43:27.117053,39.26,9.0,2025-12-02T16:14:31.314485,8.19,9.0,2025-12-02T16:14:31.314485,8.19,,,,,,,,,,,,,,,,,,
10-1218,Bus 2 -> Bus 1 -> Patong,72,Vachira Phuket Hospital,2334,2025-12-02T15:33:27.117053,2025-12-02T16:28:15.715422,13.0,2025-12-02T15:46:27.117053,41.81,13.0,2025-12-02T16:18:31.314485,9.74,13.0,2025-12-02T16:18:31.314485,9.74,4.0,2025-12-02T16:22:40.194399,5.59,,,,,,,,,,,,,,,
10-1218,Bus 2 -> Bus 1 -> Patong,73,Bangkok Hospital Phuket,2559,2025-12-02T15:33:27.117053,2025-12-02T16:32:18.248568,16.0,2025-12-02T15:49:27.117053,42.85,16.0,2025-12-02T16:21:31.314485,10.78,16.0,2025-12-02T16:21:31.314485,10.78,7.0,2025-12-02T16:25:40.194399,6.63,,,,,,,,,,,,,,,
10-1218,Bus 2 -> Bus 1 -> Patong,74,Chillva Market,2715,2025-12-02T15:33:27.117053,2025-12-02T16:35:20.139899,18.0,2025-12-02T15:51:27.117053,43.88,18.0,2025-12-02T16:23:31.314485,11.81,18.0,2025-12-02T16:23:31.314485,11.81,9.0,2025-12-02T16:27:40.194399,7.67,,,,,,,,,,,,,,,
10-1219,Bus 2 -> Bus 1 -> Patong,108,Big C Market Thepkrasattri,205,2025-12-02T15:37:30.677753,2025-12-02T15:39:32.603228,2.0,2025-12-02T15:39:30.677753,0.03,,,,,,,,,,,,,,,,,,,,,,,,
10-1220,Bus 2 -> Bus 1 -> Patong,70,Satree Phuket School,2019,2025-12-02T15:38:31.714802,2025-12-02T15:39:32.603228,,,,,,,,,,,,,,,,,,,,,,,,,,,
10-1220,Bus 2 -> Bus 1 -> Patong,71,Phuket Wittayalai School,2111,2025-12-02T15:38:31.714802,2025-12-02T15:46:14.116275,2.0,2025-12-02T15:40:31.714802,5.71,,,,,,,,,,,,,,,,,,,,,,,,
10-1220,Bus 2 -> Bus 1 -> Patong,72,Vachira Phuket Hospital,2334,2025-12-02T15:38:31.714802,2025-12-02T15:46:14.116275,5.0,2025-12-02T15:43:31.714802,2.71,,,,,,,,,,,,,,,,,,,,,,,,
10-1220,Bus 2 -> Bus 1 -> Patong,73,Bangkok Hospital Phuket,2559,2025-12-02T15:38:31.714802,2025-12-02T15:53:20.716566,8.0,2025-12-02T15:46:31.714802,6.82,,,,,,,,,,,,,,,,,,,,,,,,
10-1220,Bus 2 -> Bus 1 -> Patong,74,Chillva Market,2715,2025-12-02T15:38:31.714802,2025-12-02T15:54:21.925414,10.0,2025-12-02T15:48:31.714802,5.84,,,,,,,,,,,,,,,,,,,,,,,,
10-1220,Bus 2 -> Bus 1 -> Patong,75,Lotus Samkong,2809,2025-12-02T15:38:31.714802,2025-12-02T15:56:24.065274,11.0,2025-12-02T15:49:31.714802,6.87,,,,,,,,,,,,,,,,,,,,,,,,
10-1220,Bus 2 -> Bus 1 -> Patong,76,Andamanda Phuket Waterpark,2935,2025-12-02T15:38:31.714802,2025-12-02T16:01:28.484722,13.0,2025-12-02T15:51:31.714802,9.95,2.0,2025-12-02T15:56:21.925414,5.11,,,,,,,,,,,,,,,,,,,,,
10-1220,Bus 2 -> Bus 1 -> Patong,77,Kathu Fresh Market,3266,2025-12-02T15:38:31.714802,2025-12-02T16:02:28.951937,15.0,2025-12-02T15:53:31.714802,8.95,5.0,2025-12-02T15:59:21.925414,3.12,,,,,,,,,,,,,,,,,,,,,
10-1220,Bus 2 -> Bus 1 -> Patong,78,PTT Station Kathu,3459,2025-12-02T15:38:31.714802,2025-12-02T16:09:34.910834,17.0,2025-12-02T15:55:31.714802,14.05,7.0,2025-12-02T16:01:21.925414,8.22,,,,,,,,,,,,,,,,,,,,,
10-1220,Bus 2 -> Bus 1 -> Patong,79,Siko,3649,2025-12-02T15:38:31.714802,2025-12-02T16:09:34.910834,19.0,2025-12-02T15:57:31.714802,12.05,8.0,2025-12-02T16:02:21.925414,7.22,,,,,,,,,,,,,,,,,,,,,
10-1220,Bus 2 -> Bus 1 -> Patong,80,Kathu Police Station,3736,2025-12-02T15:38:31.714802,2025-12-02T16:15:38.354249,20.0,2025-12-02T15:58:31.714802,17.11,9.0,2025-12-02T16:03:21.925414,12.27,,,,,,,,,,,,,,,,,,,,,
10-1220,Bus 2 -> Bus 1 -> Patong,81,Coffee Mania,4922,2025-12-02T15:38:31.714802,2025-12-02T16:33:18.862930,37.0,2025-12-02T16:15:31.714802,17.79,26.0,2025-12-02T16:20:21.925414,12.95,18.0,2025-12-02T16:27:34.910834,5.73,6.0,2025-12-02T16:29:43.195154,3.59,,,,,,,,,,,,,,,
10-1219,Patong -> Bus 1 -> Bus 2,106,Big C Market Thepkrasattri,5122,2025-12-02T15:40:38.759962,2025-12-02T16:32:18.557462,1.0,2025-12-02T15:41:38.759962,50.66,,,,,,,,,,,,,,,,,,,,,,,,
10-1219,Patong -> Bus 1 -> Bus 2,115,Sanamchai,3411,2025-12-02T15:48:16.780468,2025-12-02T15:49:17.779002,,,,,,,,,,,,,,,,,,,,,,,,,,,
10-1219,Patong -> Bus 1 -> Bus 2,98,Phuket Bus Terminal 1,3774,2025-12-02T15:48:16.780468,2025-12-02T15:52:20.841561,7.0,2025-12-02T15:55:16.780468,-2.93,,,,,,,,,,,,,,,,,,,,,,,,
10-1219,Patong -> Bus 1 -> Bus 2,100,Phuket Provincial Cooperative Office,4180,2025-12-02T15:48:16.780468,2025-12-02T16:19:41.299746,12.0,2025-12-02T16:00:16.780468,19.41,,,,,,,,,,,,,,,,,,,,,,,,
10-1219,Patong -> Bus 1 -> Bus 2,101,Baan Natkamon,4358,2025-12-02T15:48:16.780468,2025-12-02T16:21:12.162845,14.0,2025-12-02T16:02:16.780468,18.92,,,,,,,,,,,,,,,,,,,,,,,,
10-1219,Patong -> Bus 1 -> Bus 2,102,Big C Mini Kingkaew,4507,2025-12-02T15:48:16.780468,2025-12-02T16:22:43.012200,15.0,2025-12-02T16:03:16.780468,19.44,,,,,,,,,,,,,,,,,,,,,,,,
10-1219,Patong -> Bus 1 -> Bus 2,103,Soi Thachin,4616,2025-12-02T15:48:16.780468,2025-12-02T16:23:43.591629,16.0,2025-12-02T16:04:16.780468,19.45,,,,,,,,,,,,,,,,,,,,,,,,
10-1219,Patong -> Bus 1 -> Bus 2,104,Dcondo Campus Kuku,4776,2025-12-02T15:48:16.780468,2025-12-02T16:25:14.440183,18.0,2025-12-02T16:06:16.780468,18.96,,,,,,,,,,,,,,,,,,,,,,,,
10-1219,Patong -> Bus 1 -> Bus 2,105,Ban Kuku School,4859,2025-12-02T15:48:16.780468,2025-12-02T16:27:15.596676,19.0,2025-12-02T16:07:16.780468,19.98,,,,,,,,,,,,,,,,,,,,,,,,
10-1208,Rawai -> Airport,18,Andaman Cannacia Resort,1565,2025-12-02T15:50:19.500895,2025-12-02T16:07:07.128935,16.0,2025-12-02T16:06:19.500895,0.79,,,,,,,,,,,,,,,,,,,,,,,,
10-1208,Rawai -> Airport,19,Beyond hotel Kata,1728,2025-12-02T15:50:19.500895,2025-12-02T16:11:10.493727,18.0,2025-12-02T16:08:19.500895,2.85,,,,,,,,,,,,,,,,,,,,,,,,
10-1208,Rawai -> Airport,20,Kata Palm,1780,2025-12-02T15:50:19.500895,2025-12-02T16:12:11.054383,19.0,2025-12-02T16:09:19.500895,2.86,,,,,,,,,,,,,,,,,,,,,,,,
10-1208,Rawai -> Airport,21,OZO Kata,1937,2025-12-02T15:50:19.500895,2025-12-02T16:15:43.010370,21.0,2025-12-02T16:11:19.500895,4.39,,,,,,,,,,,,,,,,,,,,,,,,
10-1208,Rawai -> Airport,22,Peach Blossom,1963,2025-12-02T15:50:19.500895,2025-12-02T16:15:43.010370,21.0,2025-12-02T16:11:19.500895,4.39,,,,,,,,,,,,,,,,,,,,,,,,
10-1208,Rawai -> Airport,23,Karon Stadium,2064,2025-12-02T15:50:19.500895,2025-12-02T16:17:14.019545,23.0,2025-12-02T16:13:19.500895,3.91,,,,,,,,,,,,,,,,,,,,,,,,
10-1208,Rawai -> Airport,24,Woraburi Karon,2369,2025-12-02T15:50:19.500895,2025-12-02T16:21:16.369787,26.0,2025-12-02T16:16:19.500895,4.95,4.0,2025-12-02T16:20:43.673576,0.54,,,,,,,,,,,,,,,,,,,,,
10-1208,Rawai -> Airport,25,Karon Circle,2454,2025-12-02T15:50:19.500895,2025-12-02T16:22:16.929211,27.0,2025-12-02T16:17:19.500895,4.96,5.0,2025-12-02T16:21:43.673576,0.55,,,,,,,,,,,,,,,,,,,,,
10-1208,Rawai -> Airport,26,"Secret cliff resort ",2997,2025-12-02T15:50:19.500895,2025-12-02T16:35:25.065957,33.0,2025-12-02T16:23:19.500895,12.09,10.0,2025-12-02T16:26:43.673576,8.69,4.0,2025-12-02T16:35:52.920411,-0.46,,,,,,,,,,,,,,,,,,
10-1265,Dragon Line,2,Queen Sirikit Park,56,2025-12-02T16:03:18.529142,2025-12-02T16:04:19.163064,1.0,2025-12-02T16:36:37.577294,,,,,,,,,,,,,,,,,,,,,,,,,
10-1265,Dragon Line,3,Old Town Intersection,134,2025-12-02T16:03:18.529142,2025-12-02T16:06:20.745901,1.0,2025-12-02T16:04:18.529142,2.04,,,,,,,,,,,,,,,,,,,,,,,,
10-1265,Dragon Line,4,Government Savings Bank,159,2025-12-02T16:03:18.529142,2025-12-02T16:07:21.598122,2.0,2025-12-02T16:05:18.529142,2.05,,,,,,,,,,,,,,,,,,,,,,,,
10-1265,Dragon Line,5,Royal Phuket City Hotel,243,2025-12-02T16:03:18.529142,2025-12-02T16:08:22.312926,3.0,2025-12-02T16:06:18.529142,2.06,,,,,,,,,,,,,,,,,,,,,,,,
10-1265,Dragon Line,6,Pearl Hotel Phuket,333,2025-12-02T16:03:18.529142,2025-12-02T16:15:26.058315,5.0,2025-12-02T16:08:18.529142,7.13,,,,,,,,,,,,,,,,,,,,,,,,
10-1265,Dragon Line,7,Mc Donald's,435,2025-12-02T16:03:18.529142,2025-12-02T16:17:27.182962,7.0,2025-12-02T16:10:18.529142,7.14,,,,,,,,,,,,,,,,,,,,,,,,
10-1265,Dragon Line,8,Surin Circle Clock Tower,523,2025-12-02T16:03:18.529142,2025-12-02T16:20:28.849005,9.0,2025-12-02T16:12:18.529142,8.17,1.0,2025-12-02T16:19:27.746759,1.02,,,,,,,,,,,,,,,,,,,,,
10-1265,Dragon Line,9,Municipal Parking,593,2025-12-02T16:03:18.529142,2025-12-02T16:21:29.649462,10.0,2025-12-02T16:13:18.529142,8.19,2.0,2025-12-02T16:20:27.746759,1.03,,,,,,,,,,,,,,,,,,,,,
10-1265,Dragon Line,10,Krungsri Bank,647,2025-12-02T16:03:18.529142,2025-12-02T16:22:30.191006,12.0,2025-12-02T16:15:18.529142,7.19,3.0,2025-12-02T16:21:27.746759,1.04,,,,,,,,,,,,,,,,,,,,,
10-1265,Dragon Line,11,WANLAMUN & EGG E EGG @ OLD TOWN,692,2025-12-02T16:03:18.529142,2025-12-02T16:23:30.723762,12.0,2025-12-02T16:15:18.529142,8.2,4.0,2025-12-02T16:22:27.746759,1.05,,,,,,,,,,,,,,,,,,,,,
10-1265,Dragon Line,12,Phuket Thaihua Museum,760,2025-12-02T16:03:18.529142,2025-12-02T16:26:32.426754,14.0,2025-12-02T16:17:18.529142,9.23,6.0,2025-12-02T16:24:27.746759,2.08,,,,,,,,,,,,,,,,,,,,,
10-1265,Dragon Line,13,Dibuk Road,830,2025-12-02T16:03:18.529142,2025-12-02T16:28:33.594084,15.0,2025-12-02T16:18:18.529142,10.25,7.0,2025-12-02T16:25:27.746759,3.1,,,,,,,,,,,,,,,,,,,,,
10-1265,Dragon Line,14,Mongkhonnimit Temple,886,2025-12-02T16:03:18.529142,2025-12-02T16:31:35.202010,16.0,2025-12-02T16:19:18.529142,12.28,8.0,2025-12-02T16:26:27.746759,5.12,,,,,,,,,,,,,,,,,,,,,
10-1265,Dragon Line,15,Limelight Phuket,960,2025-12-02T16:03:18.529142,2025-12-02T16:34:36.864170,18.0,2025-12-02T16:21:18.529142,13.31,10.0,2025-12-02T16:28:27.746759,6.15,,,,,,,,,,,,,,,,,,,,,
10-1150,Airport -> Rawai,43,Thalang Public Health Office,2368,2025-12-02T16:05:39.028116,2025-12-02T16:24:22.220645,14.0,2025-12-02T16:19:39.028116,4.72,10.0,2025-12-02T16:30:50.126765,-6.47,,,,,,,,,,,,,,,,,,,,,
10-1150,Airport -> Rawai,44,Baan Khian,2586,2025-12-02T16:05:39.028116,2025-12-02T16:34:28.450903,17.0,2025-12-02T16:22:39.028116,11.82,13.0,2025-12-02T16:33:50.126765,0.64,,,,,,,,,,,,,,,,,,,,,
10-1223,Dragon Line,2,Queen Sirikit Park,56,2025-12-02T16:25:31.834045,2025-12-02T16:26:32.426754,,,,,,,,,,,,,,,,,,,,,,,,,,,
10-1265,Dragon Line,14,Mongkhonnimit Temple,886,2025-12-02T17:26:19.796750,2025-12-02T17:30:27.279027,3.0,2025-12-02T17:29:19.796750,1.12,,,,,,,,,,,,,,,,,,,,,,,,
10-1219,Patong -> Bus 1 -> Bus 2,104,Dcondo Campus Kuku,4776,2025-12-02T17:26:19.796160,2025-12-02T17:30:27.500623,3.0,2025-12-02T17:29:19.796160,1.13,,,,,,,,,,,,,,,,,,,,,,,,
10-1265,Dragon Line,15,Limelight Phuket,960,2025-12-02T17:26:19.796750,2025-12-02T17:31:27.819442,5.0,2025-12-02T17:31:19.796750,0.13,,,,,,,,,,,,,,,,,,,,,,,,
10-1222,Bus 2 -> Bus 1 -> Patong,76,Andamanda Phuket Waterpark,2935,2025-12-02T17:26:19.795984,2025-12-02T17:31:27.872661,2.0,2025-12-02T17:28:19.795984,3.13,,,,,,,,,,,,,,,,,,,,,,,,
10-1220,Patong -> Bus 1 -> Bus 2,89,Kathu Fresh Market,2031,2025-12-02T17:26:19.796160,2025-12-02T17:31:28.059957,4.0,2025-12-02T17:30:19.796160,1.14,,,,,,,,,,,,,,,,,,,,,,,,
10-1221,Patong -> Bus 1 -> Bus 2,95,Phuket Wittayalai School,3184,2025-12-02T15:18:14.160464,2025-12-02T17:31:28.059957,6.0,2025-12-02T15:24:14.160464,127.23,29.0,2025-12-02T16:25:55.200540,65.55,,,,,,,,,,,,,,,,,,,,,
10-1204,Airport -> Rawai,64,Kata Palm,9111,2025-12-02T15:03:30.466061,2025-12-02T17:31:28.159819,92.0,2025-12-02T16:35:30.466061,55.96,77.0,2025-12-02T16:35:49.489732,55.64,68.0,2025-12-02T16:41:34.745395,49.89,62.0,2025-12-02T16:50:51.084167,40.62,,,,,,,,,,,,,,,
10-1204,Airport -> Rawai,65,Beyond hotel Kata,9157,2025-12-02T15:03:30.466061,2025-12-02T17:32:28.724211,93.0,2025-12-02T16:36:30.466061,55.97,78.0,2025-12-02T16:36:49.489732,55.65,69.0,2025-12-02T16:42:34.745395,49.9,63.0,2025-12-02T16:51:51.084167,40.63,,,,,,,,,,,,,,,
10-1222,Bus 2 -> Bus 1 -> Patong,77,Kathu Fresh Market,3266,2025-12-02T17:26:19.795984,2025-12-02T17:33:28.967449,5.0,2025-12-02T17:31:19.795984,2.15,,,,,,,,,,,,,,,,,,,,,,,,
10-1221,Patong -> Bus 1 -> Bus 2,96,Satree Phuket School,3270,2025-12-02T15:18:14.160464,2025-12-02T17:33:29.159103,7.0,2025-12-02T15:25:14.160464,128.25,30.0,2025-12-02T16:26:55.200540,66.57,,,,,,,,,,,,,,,,,,,,,
10-1152,Rawai -> Airport,23,Karon Stadium,2064,2025-12-02T16:00:00.339079,2025-12-02T17:33:29.342239,10.0,2025-12-02T16:10:00.339079,83.48,,,,,,,,,,,,,,,,,,,,,,,,
10-1208,Rawai -> Airport,32,Big C Kamala,5519,2025-12-02T15:50:19.500895,2025-12-02T17:33:29.342239,62.0,2025-12-02T16:52:19.500895,41.16,40.0,2025-12-02T16:56:43.673576,36.76,34.0,2025-12-02T17:05:52.920411,27.61,,,,,,,,,,,,,,,,,,
10-1265,Dragon Line,13,Dibuk Road,830,2025-12-03T10:08:41.633344,2025-12-03T10:09:12.139612,,,,,,,,,,,,,,,,,,,,,,,,,,,
10-1219,Bus 2 -> Bus 1 -> Patong,112,Big C Mini Kingkaew,789,2025-12-03T10:08:41.633064,2025-12-03T10:09:12.672241,,,,,,,,,,,,,,,,,,,,,,,,,,,
10-1147,Rawai -> Airport,19,Beyond hotel Kata,1728,2025-12-03T10:08:41.632825,2025-12-03T10:09:12.707653,,,,,,,,,,,,,,,,,,,,,,,,,,,
10-1265,Dragon Line,14,Mongkhonnimit Temple,886,2025-12-03T10:08:41.633344,2025-12-03T10:10:12.816841,1.0,2025-12-03T10:09:41.633344,0.52,,,,,,,,,,,,,,,,,,,,,,,,
10-1219,Bus 2 -> Bus 1 -> Patong,113,Baan Natkamon,939,2025-12-03T10:08:41.633064,2025-12-03T10:10:13.358672,2.0,2025-12-03T10:10:41.633064,-0.47,,,,,,,,,,,,,,,,,,,,,,,,
10-1147,Rawai -> Airport,20,Kata Palm,1780,2025-12-03T10:08:41.632825,2025-12-03T10:10:13.510678,,,,,,,,,,,,,,,,,,,,,,,,,,,
10-1204,Airport -> Rawai,62,Karon Stadium,8823,2025-12-03T10:08:41.632580,2025-12-03T10:11:14.032664,1.0,2025-12-03T10:09:41.632580,1.54,,,,,,,,,,,,,,,,,,,,,,,,
10-1265,Dragon Line,15,Limelight Phuket,960,2025-12-03T10:12:05.596583,2025-12-03T10:13:06.408039,0,2025-12-03T10:12:05.596583,1.01,,,,,,,,,,,,,,,,,,,,,,,,
10-1219,Bus 2 -> Bus 1 -> Patong,114,Phuket Provincial Cooperative Office,1116,2025-12-03T10:12:05.596117,2025-12-03T10:13:06.724772,0,2025-12-03T10:12:05.596117,1.02,,,,,,,,,,,,,,,,,,,,,,,,
10-1196,Airport -> Rawai,48,Surin Beach,4456,2025-12-03T10:12:05.595542,2025-12-03T10:13:07.100409,0,2025-12-03T10:12:05.595542,1.03,,,,,,,,,,,,,,,,,,,,,,,,
10-1147,Rawai -> Airport,22,Peach Blossom,1963,2025-12-03T10:12:05.595825,2025-12-03T10:13:07.122208,0,2025-12-03T10:12:05.595825,1.03,,,,,,,,,,,,,,,,,,,,,,,,
10-1153,Rawai -> Airport,26,Secret cliff resort ,2997,2025-12-03T10:12:05.595825,2025-12-03T10:13:07.122208,0,2025-12-03T10:12:05.595825,1.03,,,,,,,,,,,,,,,,,,,,,,,,
10-1204,Airport -> Rawai,64,Kata Palm,9111,2025-12-03T10:12:05.595542,2025-12-03T10:14:07.682030,1,2025-12-03T10:13:05.595542,1.03,,,,,,,,,,,,,,,,,,,,,,,,
10-1147,Rawai -> Airport,23,Karon Stadium,2064,2025-12-03T10:12:05.595825,2025-12-03T10:14:07.784230,1,2025-12-03T10:13:05.595825,1.04,,,,,,,,,,,,,,,,,,,,,,,,
10-1205,Rawai -> Airport,32,Big C Kamala,5519,2025-12-03T10:12:05.595825,2025-12-03T10:14:07.784230,1,2025-12-03T10:13:05.595825,1.04,,,,,,,,,,,,,,,,,,,,,,,,
10-1159,Airport -> Rawai,53,Kalim Bus Stop,6450,2025-12-03T10:12:05.595542,2025-12-03T10:15:08.201810,1,2025-12-03T10:13:05.595542,2.04,,,,,,,,,,,,,,,,,,,,,,,,
10-1159,Airport -> Rawai,54,Kalim School,6540,2025-12-03T10:12:05.595542,2025-12-03T10:15:08.201810,2,2025-12-03T10:14:05.595542,1.04,,,,,,,,,,,,,,,,,,,,,,,,
10-1204,Airport -> Rawai,65,Beyond hotel Kata,9157,2025-12-03T10:12:05.595542,2025-12-03T10:15:08.201810,2,2025-12-03T10:14:05.595542,1.04,,,,,,,,,,,,,,,,,,,,,,,,
10-1159,Airport -> Rawai,55,Diamond Cliff Resort & Spa,6630,2025-12-03T10:12:05.595542,2025-12-03T10:16:08.888614,3,2025-12-03T10:15:05.595542,1.05,,,,,,,,,,,,,,,,,,,,,,,,
10-1205,Rawai -> Airport,33,Phuket Fantasea,5751,2025-12-03T10:12:05.595825,2025-12-03T10:17:09.509077,3,2025-12-03T10:15:05.595825,2.07,,,,,,,,,,,,,,,,,,,,,,,,
10-1212,Rawai -> Airport,38,Laguna,7313,2025-12-03T10:12:05.595825,2025-12-03T10:17:09.509077,2,2025-12-03T10:14:05.595825,3.07,,,,,,,,,,,,,,,,,,,,,,,,
10-1212,Rawai -> Airport,39,Cherngtalay School,7346,2025-12-03T10:12:05.595825,2025-12-03T10:17:09.509077,3,2025-12-03T10:15:05.595825,2.07,,,,,,,,,,,,,,,,,,,,,,,,
10-1196,Airport -> Rawai,49,Intercontinental Kamala,4912,2025-12-03T10:12:05.595542,2025-12-03T10:17:09.544794,4,2025-12-03T10:16:05.595542,1.07,,,,,,,,,,,,,,,,,,,,,,,,
10-1196,Airport -> Rawai,50,Kamala Muslim Cemetery,5026,2025-12-03T10:12:05.595542,2025-12-03T10:17:09.544794,5,2025-12-03T10:17:05.595542,0.07,,,,,,,,,,,,,,,,,,,,,,,,
10-1218,Bus 2 -> Bus 1 -> Patong,71,Phuket Wittayalai School,2111,2025-12-03T10:12:05.596117,2025-12-03T10:18:09.536927,1,2025-12-03T10:13:05.596117,5.07,,,,,,,,,,,,,,,,,,,,,,,,
10-1147,Rawai -> Airport,24,Woraburi Karon,2369,2025-12-03T10:12:05.595825,2025-12-03T10:18:10.178762,5,2025-12-03T10:17:05.595825,1.08,,,,,,,,,,,,,,,,,,,,,,,,
10-1196,Airport -> Rawai,51,Phuket Fantasea,5136,2025-12-03T10:12:05.595542,2025-12-03T10:18:10.271555,7,2025-12-03T10:19:05.595542,-0.92,,,,,,,,,,,,,,,,,,,,,,,,
10-1205,Rawai -> Airport,34,Kamala Muslim Cemetery,5863,2025-12-03T10:12:05.595825,2025-12-03T10:18:10.178762,4,2025-12-03T10:16:05.595825,2.08,,,,,,,,,,,,,,,,,,,,,,,,
10-1205,Rawai -> Airport,35,Cafe De Mar,5945,2025-12-03T10:12:05.595825,2025-12-03T10:18:10.178762,5,2025-12-03T10:17:05.595825,1.08,,,,,,,,,,,,,,,,,,,,,,,,
10-1204,Airport -> Rawai,66,Andaman Cannacia Resort,9327,2025-12-03T10:12:05.595542,2025-12-03T10:18:10.271555,5,2025-12-03T10:17:05.595542,1.08,,,,,,,,,,,,,,,,,,,,,,,,
10-1264,Dragon Line,2,Queen Sirikit Park,56,2025-12-03T10:17:08.816274,2025-12-03T10:19:09.864484,0,2025-12-03T10:17:08.816274,2.02,,,,,,,,,,,,,,,,,,,,,,,,
10-1147,Rawai -> Airport,25,Karon Circle,2454,2025-12-03T10:12:05.595825,2025-12-03T10:19:10.925148,6,2025-12-03T10:18:05.595825,1.09,,,,,,,,,,,,,,,,,,,,,,,,
10-1207,Airport -> Rawai,43,Thalang Public Health Office,2368,2025-12-03T10:12:05.595542,2025-12-03T10:19:10.955272,6,2025-12-03T10:18:05.595542,1.09,,,,,,,,,,,,,,,,,,,,,,,,
10-1218,Bus 2 -> Bus 1 -> Patong,72,Vachira Phuket Hospital,2334,2025-12-03T10:12:05.596117,2025-12-03T10:20:10.649964,4,2025-12-03T10:16:05.596117,4.08,,,,,,,,,,,,,,,,,,,,,,,,
10-1159,Airport -> Rawai,56,Indigo Patong,6893,2025-12-03T10:12:05.595542,2025-12-03T10:20:11.810451,8,2025-12-03T10:20:05.595542,0.1,,,,,,,,,,,,,,,,,,,,,,,,
10-1153,Rawai -> Airport,27,Patong Bus Stop,3674,2025-12-03T10:12:05.595825,2025-12-03T10:20:11.834928,6,2025-12-03T10:18:05.595825,2.1,,,,,,,,,,,,,,,,,,,,,,,,
10-1150,Airport -> Rawai,42,Phuket Airport,3,2025-12-03T10:19:10.955272,2025-12-03T10:23:13.812125,0,2025-12-03T10:19:10.955272,4.05,,,,,,,,,,,,,,,,,,,,,,,,
10-1196,Airport -> Rawai,52,Big C Kamala,5396,2025-12-03T10:12:05.595542,2025-12-03T10:23:13.812125,9,2025-12-03T10:21:05.595542,2.14,,,,,,,,,,,,,,,,,,,,,,,,
10-1264,Dragon Line,3,Old Town Intersection,134,2025-12-03T10:17:08.816274,2025-12-03T10:24:12.383604,2,2025-12-03T10:19:08.816274,5.06,,,,,,,,,,,,,,,,,,,,,,,,
10-1205,Rawai -> Airport,36,Surin Beach,6442,2025-12-03T10:12:05.595825,2025-12-03T10:24:14.249236,9,2025-12-03T10:21:05.595825,3.14,,,,,,,,,,,,,,,,,,,,,,,,
10-1264,Dragon Line,4,Government Savings Bank,159,2025-12-03T10:17:08.816274,2025-12-03T10:25:12.992788,2,2025-12-03T10:19:08.816274,6.07,,,,,,,,,,,,,,,,,,,,,,,,
10-1218,Bus 2 -> Bus 1 -> Patong,73,Bangkok Hospital Phuket,2559,2025-12-03T10:12:05.596117,2025-12-03T10:25:13.542878,8,2025-12-03T10:20:05.596117,5.13,,,,,,,,,,,,,,,,,,,,,,,,
10-1207,Airport -> Rawai,44,Baan Khian,2586,2025-12-03T10:12:05.595542,2025-12-03T10:25:14.907858,9,2025-12-03T10:21:05.595542,4.16,,,,,,,,,,,,,,,,,,,,,,,,
10-1212,Rawai -> Airport,40,Baan Khian,8300,2025-12-03T10:12:05.595825,2025-12-03T10:25:14.985011,12,2025-12-03T10:24:05.595825,1.16,,,,,,,,,,,,,,,,,,,,,,,,
10-1218,Bus 2 -> Bus 1 -> Patong,74,Chillva Market,2715,2025-12-03T10:12:05.596117,2025-12-03T10:26:14.044589,10,2025-12-03T10:22:05.596117,4.14,,,,,,,,,,,,,,,,,,,,,,,,
10-1204,Airport -> Rawai,67,Sai Yuan,10247,2025-12-03T10:12:05.595542,2025-12-03T10:26:15.578798,13,2025-12-03T10:25:05.595542,1.17,,,,,,,,,,,,,,,,,,,,,,,,
10-1147,Rawai -> Airport,26,Secret cliff resort ,2997,2025-12-03T10:12:05.595825,2025-12-03T10:26:15.541306,11,2025-12-03T10:23:05.595825,3.17,,,,,,,,,,,,,,,,,,,,,,,,
10-1218,Bus 2 -> Bus 1 -> Patong,75,Lotus Samkong,2809,2025-12-03T10:12:05.596117,2025-12-03T10:27:14.535585,11,2025-12-03T10:23:05.596117,4.15,,,,,,,,,,,,,,,,,,,,,,,,
10-1212,Rawai -> Airport,41,Thalang Public Health Office,8532,2025-12-03T10:12:05.595825,2025-12-03T10:30:18.419659,15,2025-12-03T10:27:05.595825,3.21,2.0,2025-12-03T10:29:16.246225,1.04,,,,,,,,,,,,,,,,,,,,,
10-1196,Airport -> Rawai,53,Kalim Bus Stop,6450,2025-12-03T10:12:05.595542,2025-12-03T10:30:18.457462,20,2025-12-03T10:32:05.595542,-1.79,3.0,2025-12-03T10:30:16.246588,0.04,,,,,,,,,,,,,,,,,,,,,
10-1152,Rawai -> Airport,17,Sai Yuan,642,2025-12-03T10:24:14.249236,2025-12-03T10:31:19.172205,5,2025-12-03T10:29:14.249236,2.08,,,,,,,,,,,,,,,,,,,,,,,,
10-1196,Airport -> Rawai,54,Kalim School,6540,2025-12-03T10:12:05.595542,2025-12-03T10:31:19.196486,21,2025-12-03T10:33:05.595542,-1.77,4.0,2025-12-03T10:31:16.246588,0.05,,,,,,,,,,,,,,,,,,,,,
10-1153,Rawai -> Airport,28,Bangla Patong ,3858,2025-12-03T10:12:05.595825,2025-12-03T10:31:19.172205,10,2025-12-03T10:22:05.595825,9.23,0.0,2025-12-03T10:27:16.246225,4.05,,,,,,,,,,,,,,,,,,,,,
10-1223,Patong -> Bus 1 -> Bus 2,85,Makro Nanai,371,2025-12-03T10:27:14.062998,2025-12-03T10:32:16.950217,2,2025-12-03T10:29:14.062998,3.05,,,,,,,,,,,,,,,,,,,,,,,,
10-1218,Bus 2 -> Bus 1 -> Patong,76,Andamanda Phuket Waterpark,2935,2025-12-03T10:12:05.596117,2025-12-03T10:32:17.612671,12,2025-12-03T10:24:05.596117,8.2,1.0,2025-12-03T10:28:14.535585,4.05,,,,,,,,,,,,,,,,,,,,,
10-1196,Airport -> Rawai,55,Diamond Cliff Resort & Spa,6630,2025-12-03T10:12:05.595542,2025-12-03T10:32:19.823044,22,2025-12-03T10:34:05.595542,-1.76,5.0,2025-12-03T10:32:16.246588,0.06,,,,,,,,,,,,,,,,,,,,,
10-1264,Dragon Line,5,Royal Phuket City Hotel,243,2025-12-03T10:17:08.816274,2025-12-03T10:33:17.098735,4,2025-12-03T10:21:08.816274,12.14,0.0,2025-12-03T10:32:16.413078,1.01,,,,,,,,,,,,,,,,,,,,,
10-1218,Bus 2 -> Bus 1 -> Patong,77,Kathu Fresh Market,3266,2025-12-03T10:12:05.596117,2025-12-03T10:33:18.198673,15,2025-12-03T10:27:05.596117,6.21,4.0,2025-12-03T10:31:14.535585,2.06,,,,,,,,,,,,,,,,,,,,,
10-1147,Rawai -> Airport,27,Patong Bus Stop,3674,2025-12-03T10:12:05.595825,2025-12-03T10:33:20.515205,17,2025-12-03T10:29:05.595825,4.25,3.0,2025-12-03T10:30:16.246225,3.07,,,,,,,,,,,,,,,,,,,,,
10-1205,Rawai -> Airport,37,Lotus Cherngtalay,7024,2025-12-03T10:12:05.595825,2025-12-03T10:33:20.515205,16,2025-12-03T10:28:05.595825,5.25,2.0,2025-12-03T10:29:16.246225,4.07,,,,,,,,,,,,,,,,,,,,,
10-1264,Dragon Line,6,Pearl Hotel Phuket,333,2025-12-03T10:17:08.816274,2025-12-03T10:34:17.608675,6,2025-12-03T10:23:08.816274,11.15,2.0,2025-12-03T10:34:16.413078,0.02,,,,,,,,,,,,,,,,,,,,,
10-1159,Airport -> Rawai,59,Secret cliff resort ,7899,2025-12-03T10:12:05.595542,2025-12-03T10:34:20.971241,22,2025-12-03T10:34:05.595542,0.26,,,,,,,,,,,,,,,,,,,,,,,,
